구분,단체이름,프로그램명,운영장소명,지원사업명,프로그램분야,프로그램대상,운영기간시작,운영기간종료,운영주소,시도,시군구,lat,lon
1,(주) 수앙,음율 팔레트-비상,강원특별자치도교육청 춘천가정형Wee센터 풀꽃마을학교,"2025 문화로 치유 지원사업 「마음치유, 봄처럼」","음악,미술,융복합","아동,청소년",2025-05-07,2025-10-29,강원특별자치도 춘천시 동면 만천로143번길 24,강원특별자치도,춘천시,37.8807864774327,127.759827756943
2,(주) 수앙,음율 팔레트-비상,강원특별자치도교육청 원주가정형Wee센터 숨길학교,"2025 문화로 치유 지원사업 「마음치유, 봄처럼」","음악,미술,융복합",청소년,2025-04-28,2025-11-03,강원특별자치도 원주시 판부면 용수골길 344,강원특별자치도,원주시,37.283442543206,127.939536054442
3,(주) 수앙,음율 팔레트-은빛 아티스트,양평군치매안심센터,"2025 문화로 치유 지원사업 「마음치유, 봄처럼」","음악,미술,융복합",노년,2025-08-08,2025-10-31,경기도 양평군 양평읍 마유산로 17,경기,양평군,37.4970350781635,127.48668110758
4,(주) 수앙,음율 팔레트-푸른 유목,상천초등학교Wee클래스,"2025 문화로 치유 지원사업 「마음치유, 봄처럼」","음악,미술,융복합","아동,청소년",2025-04-30,2025-10-23,강원특별자치도 춘천시 신북읍 상천2길 19,강원특별자치도,춘천시,37.9336084168825,127.785829584281
5,(주)감성스푼,캘포자?NO! 이제 난~ 캘승자!!,교도소(운영주소: 단체주소),,미술,"청년,중장년",2022-09-01,2022-09-30,경기도 하남시 미사대로 520,경기,하남시,37.5588264366331,127.204686431376
6,(사)참행복한(군포 그림책꿈마루),여름날의 더미북,군포 그림책꿈마루,2025 꿈다락 문화예술학교,"미술,문학",중장년,2025-07-10,2025-10-23,경기도 군포시 청백리길 16,경기,군포시,37.3628859843903,126.933931641253
7,(사)참행복한(군포 그림책꿈마루),자연으로 짓는 그림책,군포 그림책꿈마루,2025 꿈다락 문화예술학교,"미술,문학",아동,2025-07-05,2025-09-13,경기도 군포시 청백리길 6,경기,군포시,37.3610235158794,126.935316401547
8,(사)극단에저또,움직이는 정거장 나를 찾아서,,꿈다락예술문화학교,연극/뮤지컬,노년,,,동구 초량동 31-3 봉생지역 사회관,부산,동구,35.1229052230183,129.040867466715
9,(주)극단민들레,"나와 내주변 둘러보기 <다시, 봄>",우정청소년문화의집,꿈다락문화예술학교,연극/뮤지컬,청소년,2024-06-29,2024-11-16,경기도 화성시 우정읍 장안로 13-5,경기,화성시 만세구,37.0892041461606,126.817909425378
10,(재)고래문화재단,어린이는 무엇을 믿는가 마주보다,,꿈다락예술문화학교,"미술,연극/뮤지컬,무용",아동,,,남구 장생포고래로 110 장생포문화창고5층,울산,남구,35.5034836806981,129.367286186486
11,(재)고래문화재단,예술쉼표 예술로 피어 나(我),,꿈다락예술문화학교,미술,"청년,중장년",,,남구 장생포고래로 110 장생포문화창고5층,울산,남구,35.5034836806981,129.367286186486
12,(재)고래문화재단,어린이는 무엇을 믿는가-마주보다2,장생포문화창고2층,2024 생애주기별문화예술교육지원사업,"공예,미술","아동,청소년",2024-07-06,2024-11-24,울산광역시 남구 장생포고래로 110,울산,남구,35.5034836806981,129.367286186486
13,(재)고래문화재단,편식 없는 문화 장보기,,꿈다락예술문화학교,"미술,연극/뮤지컬,무용","청년,중장년",,,남구 장생포고래로 110 장생포문화창고 5층 강의실,울산,남구,35.5034836806981,129.367286186486
14,(재)고래문화재단,예술쉼표-소소살롱,장생포문화창고 2층,2024 생애주기별문화예술교육지원사업,"공예,미술","청년,중장년",2024-06-25,2024-11-12,울산광역시 남구 장생포고래로 110,울산,남구,35.5034836806981,129.367286186486
15,(재)고래문화재단,편식없는 문화 장보기2,장생포문화창고2층,2024 생애주기별문화예술교육지원사업,"미술,융복합","청년,중장년",2024-06-26,2024-11-27,울산광역시 남구 장생포고래로 110,울산,남구,35.5034836806981,129.367286186486
16,(재)고래문화재단,생애전환 문화예술학교 신박한 인생정리,,꿈다락예술문화학교,"미술,문학,연극/뮤지컬,무용",중장년,,,남구 장생포고래로 110 장생포문화창고5층,울산,남구,35.5034836806981,129.367286186486
17,(재)고래문화재단,신비한 예술마을 고래당,,꿈다락예술문화학교,미술,"아동,중장년",,,남구 장생포고래로 110 장생포문화창고5층,울산,남구,35.5034836806981,129.367286186486
18,(재)목포문화재단,2025 생활밀착형 문화예술교육 지원사업 「가가호호」,트윈스타 4층 (재)목포문화재단,2025 생활밀착형 문화예술교육 지원사업 「가가호호」,"음악,공예,미술,문학,기타",,2025-07-01,2025-09-30,전라남도 목포시 수문로 32,전남,목포시,34.79316775771,126.382906214503
19,(재)수성문화재단,가가호호,2층,2025생활밀착형 문화예술교육 지원사업,"공예,무용,미디어,융복합",,2025-07-05,2025-08-16,대구광역시 수성구 달구벌대로 2451,대구,수성구,35.8593746225039,128.630676542814
20,(재)안산문화재단,2025 꿈의 극단 '안산',안산문화예술의전당,2025 꿈의 극단 운영사업,연극/뮤지컬,청소년,2025-05-31,2025-11-15,경기도 안산시 단원구 화랑로 312,경기,안산시 단원구,37.3184271052101,126.823107286597
21,(재)완주문화재단,꿈의 무용단 운영사업,가족문화교육원,2024 꿈의 무용단 운영사업,무용,"아동,청소년",2024-04-27,2024-11-23,전북특별자치도 완주군 용진읍 완주로 456-39,전북특별자치도,완주군,35.9059918434128,127.158512273614
22,(재)완주문화재단,2025 꿈의 극단 '완주',완주향토예술문화회관,2025 꿈의 극단 운영사업,연극/뮤지컬,아동,2025-05-03,2025-11-29,전북특별자치도 완주군 삼례읍 삼봉로 215,전북특별자치도,완주군,35.9199003280376,127.093377204818
23,(재)울주문화재단,2024 <꿈의 무용단_울주>,울주문화예술회관,2024 <꿈의 무용단_울주>,무용,"아동,청소년",2024-05-11,2024-11-23,울산광역시 울주군 범서읍 천상중앙길 36,울산,울주군,35.5644309063786,129.23207292457
24,(재)종로문화재단,꿈다락문화예술학교 <종로영화국>,"우리소리도서관 4, 5층",2024 꿈다락문화예술학교,"음악,영화,연극/뮤지컬","청년,중장년",2024-09-02,2024-11-12,서울특별시 종로구 삼일대로30길 47,서울,종로구,37.5744920275842,126.990233369273
25,(재)종로문화재단,꿈의 극단 종로,혜화동 주민센터 자치회관 다목적실 지하1층,2025 꿈의 극단,연극/뮤지컬,아동,2025-05-21,2025-12-03,서울특별시 종로구 혜화로 12,서울,종로구,37.5868515419041,127.000623054549
26,(재)종로문화재단,2025 종로문화예술교육주간 <예술로 종로!>,4~5층,2025 생활밀착형 문화예술교육 가가호호,"국악,음악,공예,문학,연극/뮤지컬,무용,전통,건축,융복합",,2025-05-24,2025-06-15,서울특별시 종로구 새문안로 41,서울,종로구,37.5689816469659,126.969645715545
27,(재)천안문화재단,2024 꿈의 무용단 천안,1층,꿈의무용단,무용,"아동,청소년",2024-05-21,2024-12-03,충청남도 천안시 동남구 태조산길 261,충남,천안시 동남구,36.8220781941172,127.188954140775
28,(재)천안문화재단,2023 꿈의 댄스팀 천안,(재)천안문화재단,,무용,"아동,청소년",2023-05-01,2023-12-31,충청남도 천안시 서북구 성정8길 5 3층 천안문화재단,충남,천안시 서북구,36.8179059963222,127.141457787199
29,(재)천안문화재단,2023 꿈의 댄스팀 천안,(재)천안문화재단 3층 ,,무용,"아동,청소년",2023-05-01,2023-12-31,충청남도 천안시 서북구 성정8길 5,충남,천안시 서북구,36.8179059963222,127.141457787199
30,(재)행촌문화재단,자연생태예술_나의 작은우주 반려식물 이끼정원,,꿈다락예술문화학교,기타,"청년,중장년",,,해남군 해남읍 읍학동길 78-6 수윤아트스페이스,전남,해남군,34.5874791535232,126.581442254301
31,(재)행촌문화재단,주말예술캠퍼스 예술가 마을,,꿈다락예술문화학교,미술,"아동,청소년,청년,중장년",,,해남군 해남읍 읍학동길 78-6 수윤아트스페이스,전남,해남군,34.5874791535232,126.581442254301
32,(재)행촌문화재단,자급자족 손바닥 나무온실 만들기,,꿈다락예술문화학교,미술,"청년,중장년",,,해남군 해남읍 읍학동길 78-6 수윤아트스페이스,전남,해남군,34.5874791535232,126.581442254301
33,(주)블랙버터뮤직,"블랙버터로 만드는 ""행복한 음악 레시피""",서귀포시청소년상담복지센터,"2025 문화로 치유 지원사업 「마음치유, 봄처럼」",음악,청소년,2025-05-30,2025-11-07,제주특별자치도 서귀포시 일주동로 8643,제주특별자치도,서귀포시,33.253754542617,126.564913150717
34,(주)블랙버터뮤직,"블랙버터로 만드는 ""행복한 음악 레시피""",제주시청소년상담복지센터,"2025 문화로 치유 지원사업 「마음치유, 봄처럼」",음악,청소년,2025-06-14,2025-08-16,제주특별자치도 제주시 월랑북길 38,제주특별자치도,제주시,33.4927432063978,126.477361782517
35,(주)블랙버터뮤직,"블랙버터로 만드는 ""행복한 음악 레시피""",금천구치매안심센터,"2025 문화로 치유 지원사업 「마음치유, 봄처럼」",음악,노년,2025-05-15,2025-10-30,서울특별시 금천구 시흥대로123길 11,서울,금천구,37.4702190458977,126.8970437257
36,(주)블랙버터뮤직,"블랙버터로 만드는 ""행복한 음악 레시피""",한별초등학교,"2025 문화로 치유 지원사업 「마음치유, 봄처럼」",음악,아동,2025-05-14,2025-11-12,경기도 남양주시 별내4로 40,경기,남양주시,37.6464813564861,127.115935724129
37,(주)블랙버터뮤직,"블랙버터로 만드는 ""행복한 음악 레시피""",마포구정신건강복지센터,"2025 문화로 치유 지원사업 「마음치유, 봄처럼」",음악,청년,2025-05-09,2025-11-07,서울특별시 마포구 성산로4길 15,서울,마포구,37.563368493241,126.907895665906
38,(주)블랙버터뮤직,"블랙버터로 만드는 ""행복한 음악 레시피""",별내중학교,"2025 문화로 치유 지원사업 「마음치유, 봄처럼」",음악,청소년,2025-05-13,2025-11-11,경기도 남양주시 별내면 청학로132번길 30,경기,남양주시,37.7110097070209,127.112384851685
39,(재)김해문화재단 김해문화의전당,2024 꿈의오케스트라 김해,공연기획팀,2024 꿈의오케스트라 김해,음악,청소년,2024-03-11,2024-11-02,경상남도 김해시 김해대로 2060,경남,김해시,35.2437338143222,128.869410782674
40,(재)김해문화재단 김해문화의전당,2024 꿈의 무용단 김해,대연습실,2024 꿈의 무용단 김해,무용,"아동,청소년",2024-04-02,2024-11-05,경상남도 김해시 김해대로 2060,경남,김해시,35.2437338143222,128.869410782674
41,(재)김해문화재단 김해문화의전당,2025 꿈의 무용단 김해,김해문화의전당,2025 꿈의 무용단 김해,무용,"아동,청소년",2025-03-25,2025-11-05,경상남도 김해시 김해대로 2060,경남,김해시,35.2437338143222,128.869410782674
42,(사)한국음악협회 세종특별자치시지회,시니어들의 음악소풍!,,꿈다락예술문화학교,음악,"중장년,노년",,,"노을3로 85(한솔동), 한솔동 복합커뮤니티센터 정음관",세종특별자치시,,36.4791740367484,127.254667139178
43,(사)문화예술진흥회,꿈꾸는 예술놀이터,3층,예술시민문화예술교육,"음악,연극/뮤지컬",아동,2025-05-17,2025-07-19,광주광역시 서구 상무대로 721,광주,서구,35.1442174768523,126.842835799987
44,(사)문화예술진흥회,꿈과 희망을 전하는 봄편지꿈과 희망을 전하는 봄편지,,예술시민배움터,"음악,사진,미술,문학,융복합",아동,2024-06-08,2024-10-26,광주광역시 서구 상무대로 721,광주,서구,35.1442174768523,126.842835799987
45,(사)한국건축가협회 광주전남가회,행복을 담는 건축학교 오감으로 만나는 감성 건축,,꿈다락예술문화학교,건축,아동,,,서구 경열로17번길 20 아시아창작스튜디오 광주예총회관 3층 사.한국건축가협회 광주.전남건축가회 사무실,광주,서구,35.1526328479526,126.891312561266
46,(사)한국건축가협회 광주전남가회,삶을 디자인하는 집짓기,,꿈다락예술문화학교,건축,"청년,중장년",,,동구 조선대길 146 조선대학교 1공학관 12층 세미나실,광주,동구,35.1427410156916,126.93472378449
47,(사)지역문화공동체 경남정보사회연구소,인생을 속닥이니 노래가 되네,"1층, 봉곡평생학습센터",2024 생애주기별 문화예술교육 지원사업,"음악,융복합",중장년,2024-06-28,2024-11-09,경상남도 창원시 의창구 창이대로165번길 7,경남,창원시 의창구,35.2447096583489,128.65522333717
48,(사)문화조형연구센터,추자예술섬 바람을 담은 예술학교,A동,2025 꿈다락 문화예술학교(기획형),"디자인,공예,사진,미술,연극/뮤지컬","아동,청소년",2025-07-31,2025-08-21,제주특별자치도 제주시 추자면 오지박길 230,제주특별자치도,제주시,33.9506612638328,126.327002569945
49,(사)이강하기념사업회,미술관연계프로그램 아시아예술놀이터-Asia 챠챠! Asia 빠체!,,꿈다락예술문화학교,미술,아동,,,"남구 3.1만세운동길 6 이강하미술관, 남구 양림동 202-22 오월어머니집",광주,남구,35.1369072609304,126.915664600687
50,(재)고창문화관광재단,동촌마을 주민 산책 매뉴얼,동촌마을회관,2024 예술로 어울림,"음악,미술,무용","중장년,노년",2024-09-06,2024-11-22,전북특별자치도 고창군 상하면 동촌1길 53,전북특별자치도,고창군,35.4662492988778,126.462143321431
51,(재)고창문화관광재단,오색빛깔 가족공방,하늘땅지역아동센터,2025 생활밀착형 문화예술교육 지원사업 '가가호호',공예,"아동,청소년,중장년",2025-07-23,2025-09-17,전북특별자치도 고창군 성내면 낙산로 350-6,전북특별자치도,고창군,35.5357552791634,126.749408038234
52,(재)고창문화관광재단,엄마랑 나랑,루아커피,2025 생활밀착형 문화예술교육 지원사업 '가가호호',융복합,"아동,청소년,중장년,노년",2025-08-07,2025-09-18,전북특별자치도 고창군 고창읍 천변남로 152,전북특별자치도,고창군,35.4335027702312,126.708462388019
53,(재)고창문화관광재단,전통놀이로 마음과 몸을 잇다,전북대고창캠패서 고창문화관광재단 2층,2025 생활밀착형 문화예술교육 지원사업 '가가호호',융복합,"아동,청소년,중장년",2025-10-11,2025-11-08,전북특별자치도 고창군 고창읍 태봉로 361,전북특별자치도,고창군,35.4345374931028,126.657551976961
54,(재)고창문화관광재단,혜진의 상자 <뜨는마음>,고창 동네발전소,2024 예술로 어울림,공예,"청년,중장년",2024-10-10,2024-11-07,전북특별자치도 고창군 고창읍 남정7길 7,전북특별자치도,고창군,35.4333601111723,126.701024297604
55,(재)고창문화관광재단,내얼굴 내 이야기,하늘땅지역아동센터,2025 생활밀착형 문화예술교육 지원사업 '가가호호',미술,"아동,청소년,중장년",2025-06-21,2025-08-23,전북특별자치도 고창군 성내면 낙산로 350-6,전북특별자치도,고창군,35.5357552791634,126.749408038234
56,(재)고창문화관광재단,향기로 만나는 내 마음,모양성마을 어울림센터 2층(마음봄센터),2025 생활밀착형 문화예술교육 지원사업 '가가호호',융복합,"아동,청소년,중장년",2025-06-26,2025-07-31,전북특별자치도 고창군 고창읍 동산4길 22,전북특별자치도,고창군,35.4323122589596,126.708290589012
57,(재)고창문화관광재단,흙으로 빚는 가족 이야기,동곡요,2025 생활밀착형 문화예술교육 지원사업,공예,"아동,청소년,중장년",2025-08-30,2025-09-27,전북특별자치도 고창군 고창읍 동리로 118,전북특별자치도,고창군,35.4325113034573,126.705150307526
58,(재)고창문화관광재단,오감으로 만나는 갯벌,하전갯벌체험장,2024 예술로 어울림,기타,"아동,청소년,청년,중장년,노년,장애인",2024-08-08,2024-08-24,전북특별자치도 고창군 심원면 서전길 30,전북특별자치도,고창군,35.5397442531406,126.564945290352
59,(재)고창문화관광재단,"마음을 챙기는 그림책, 몸을 챙기는 움직임",검곡마을회관,2024 예술로 어울림,"미술,무용","중장년,노년",2024-08-21,2024-10-16,전북특별자치도 고창군 부안면 검곡길 10,전북특별자치도,고창군,35.5249579700641,126.668735847275
60,(재)고창문화관광재단,환경요정의 예술놀이,고창청소년문화센터,2024 예술로 어울림,융복합,"아동,청소년",2024-08-21,2024-09-25,전북특별자치도 고창군 고창읍 중앙로 292,전북특별자치도,고창군,35.4353521144594,126.706649822867
61,(재)고창문화관광재단,다함께 두드림 (다문화+드림+어울림),고창가족센터,2024 예술로 어울림,음악,청소년,2024-10-24,2024-11-07,전북특별자치도 고창군 고창읍 성산로 57,전북특별자치도,고창군,35.4384412771366,126.698995248254
62,(재)고창문화관광재단,그림책 꽃이 피었습니다,고창군공동체지원센터 2층(마음봄센터),2025 생활밀착형 문화예술교육 지원사업 '가가호호',융복합,"아동,청소년,중장년,노년",2025-07-02,2025-08-06,전북특별자치도 고창군 고창읍 동산4길 22,전북특별자치도,고창군,35.4323122589596,126.708290589012
63,(재)고창문화관광재단,시니어스의 화려한 외출 <7가지의 보물을 찾아서>,우쿠렐레 동호회실 및 고창관내 명소(야외),2024 예술로 어울림,음악,"중장년,노년",2024-09-23,2024-10-21,전북특별자치도 고창군 고창읍 석정2로 140,전북특별자치도,고창군,35.4304441578681,126.737746088177
64,(재)고창문화관광재단,"마음의 숲, 드나들다",고창 신재효 판소리공원 체험실2,2024 예술로 어울림,"음악,기타","아동,청소년,청년,중장년,노년,장애인",2024-08-29,2024-10-24,전북특별자치도 고창군 고창읍 중거리당산로 148,전북특별자치도,고창군,35.4325548649229,126.70215022269
65,(재)고창문화관광재단,독곡마을 치유요리책 <살면서 힘이 된 요리들>,독곡마을회관,2024 예술로 어울림,"미술,기타","중장년,노년",2024-08-01,2024-09-26,전북특별자치도 고창군 아산면 독곡길 24-8,전북특별자치도,고창군,35.4481205162803,126.634995172698
66,(재)영주문화관광재단,백 투 더 신혼일기,148아트스퀘어,2025 생활밀착형 문화예술교육 지원사업,사진,"중장년,노년",2025-10-15,2025-11-19,경상북도 영주시 대학로 77,경북,영주시,36.8070011304818,128.616142369978
67,(재)영주문화관광재단,당신과의 ○○을 세어보아요,영주시노인복지관,2025 생활밀착형 문화예술교육 지원사업,문학,"중장년,노년",2025-09-02,2025-09-25,경상북도 영주시 원당로52번길 19,경북,영주시,36.8185450840972,128.621855182751
68,(재)영주문화관광재단,우리 가족 합!,148아트스퀘어,2025 생활밀착형 문화예술교육 지원사업,음악,,2025-08-06,2025-09-24,경상북도 영주시 대학로 77,경북,영주시,36.8070011304818,128.616142369978
69,(재)영주문화관광재단,자음과 모음과 마음들,148아트스퀘어,2025 생활밀착형 문화예술교육 지원사업,문학,"아동,청소년,중장년",2025-07-22,2025-08-14,경상북도 영주시 대학로 77,경북,영주시,36.8070011304818,128.616142369978
70,(재)영주문화관광재단,엄마가 태어난 곳은?,영주어울림가족센터,2025 생활밀착형 문화예술교육 지원사업,미술,아동,2025-08-02,2025-08-23,경상북도 영주시 중앙로 20,경북,영주시,36.8191619162703,128.619032452604
71,(재)영주문화관광재단,토요팝아트,영주어울림가족센터,2025 생활밀착형 문화예술교육 지원사업,미술,"아동,청년,중장년",2025-08-02,2025-09-20,경상북도 영주시 중앙로 20,경북,영주시,36.8191619162703,128.619032452604
72,(재)영주문화관광재단,닮은 곳이 있대요,가흥1동 주민센터,2025 생활밀착형 문화예술교육 지원사업,사진,"아동,중장년",2025-09-03,2025-10-01,경상북도 영주시 대동로13번길 9,경북,영주시,36.8159935048171,128.603457118671
73,(재)익산문화관광재단,"꼬불꼬불, 내 마음에서 뛰쳐나온 나이테",익산시 생활문화센터,2025 생활밀착형 문화예술교육 지원사업 가가호호,"미술,문학","유아,아동,노년",2025-05-10,2025-05-24,전북특별자치도 익산시 서동로4길 37,전북특별자치도,익산시,35.9296440905603,126.960960934945
74,(재)익산문화관광재단,행복한 반려생활을 꿈꾸는 우리 가족,마동근린공원(수림재),2025 생활밀착형 문화예술교육 지원사업 가가호호,융복합,,2025-06-07,2025-06-28,전북특별자치도 익산시 고봉로4길 46,전북특별자치도,익산시,35.9387726915257,126.966296822992
75,(재)익산문화관광재단,금손이 아니여도 괜찮아! 우리 가족 애착 인형의 ‘꿈’,익산솜리문화의숲,2025 생활밀착형 문화예술교육 지원사업 가가호호,"공예,연극/뮤지컬","유아,아동,중장년",2025-05-17,2025-05-31,전북특별자치도 익산시 인북로12길 28,전북특별자치도,익산시,35.9335358516698,126.95410790398
76,(재)인천중구문화재단,시니어 치유 원예 예술교육 프로그램 -마음을 꽃 피우다-,,꿈다락예술문화학교,미술,노년,,,중구 차이나타운로59번길 15 개항장 문화마당 생활문화센터,인천,중구,37.4741408975229,126.619052726983
77,(재)인천중구문화재단,펄펀(fun) 탐험대,,꿈다락예술문화학교,"미술,기타","청년,중장년",,,중구 자연대로 41 206호 다락모두다즐거워지는곳,인천,중구,37.4884013508593,126.559567195438
78,(재)인천중구문화재단,"토요 낭독극 - 나를 만나, 인생을 읽다","2층, 내리마루 문화쉼터",인천 꿈다락 문화예술학교,기타,중장년,2025-06-21,2025-10-11,인천광역시 중구 신포로46번길 5,인천,중구,37.4727659325745,126.62686442177
79,(재)인천중구문화재단,생애주기별 문화예술교육 「꿈다락 문화예술학교」 가족생태예술교육 소리로 이해하는 생태 이야기, 영종역사관 교육실,,"음악,융복합,기타","아동,청소년",2023-07-23,2023-08-24,인천광역시 중구 구읍로 63,인천,중구,37.4890698389967,126.577714541121
80,(재)인천중구문화재단,2023 꿈의 댄스팀 운영 사업_인천 중구 ‘댄스로 나르샤’ (A_원도심),개항장 문화마당 생활문화센터 2층,,"무용,융복합","아동,청소년",2023-06-22,2023-11-16,인천광역시 중구 차이나타운로59번길 15,인천,중구,37.4741408975229,126.619052726983
81,(재)인천중구문화재단,개항장 씬(SCENE) 탐험대,2층 내리마루 문화쉼터,생애주기별 문화예술교육지원사업 꿈다락문화예술학교,"공예,미술",아동,2025-07-06,2025-09-07,인천광역시 중구 신포로46번길 5,인천,중구,37.4727659325745,126.62686442177
82,(재)인천중구문화재단,마루마루꼬마작곡가,2층 내리마루 문화쉼터,생애주기별 문화예술교육지원사업 꿈다락문화예술학교,음악,아동,2025-07-05,2025-09-27,인천광역시 중구 신포로46번길 5,인천,중구,37.4727659325745,126.62686442177
83,(재)인천중구문화재단,생애주기별 문화예술교육 「꿈다락 문화예술학교」 펄펀(fun) 탐험대,다락모두다즐거워지는곳,,"융복합,기타","아동,청소년,청년,중장년",2023-08-03,2023-10-12,인천광역시 중구 자연대로 41,인천,중구,37.4884013508593,126.559567195438
84,(재)인천중구문화재단,"마음의 새싹을 심다,마음을 띄우다",2층 내리마루 문화쉼터,생애주기별 문화예술교육지원사업 꿈다락문화예술학교,"공예,기타",노년,2025-07-09,2025-11-26,인천광역시 중구 신포로46번길 5,인천,중구,37.4727659325745,126.62686442177
85,(재)인천중구문화재단,생애주기별 문화예술교육 「꿈다락 문화예술학교」 시니어 치유 원예 예술교육 프로그램  마음을 꽃 피우다,개항장문화마당생활문화센터,,"미술,공예,기타",노년,2023-08-04,2023-11-24,인천광역시 중구 차이나타운로59번길 15,인천,중구,37.4741408975229,126.619052726983
86,(재)인천중구문화재단,2023 꿈의 댄스팀 운영 사업_인천 중구 ‘댄스로 나르샤’ (B_영종국제도시),영종동행정복지센터 2층 어린이합창단 연습실,,"무용,융복합","아동,청소년",2023-06-24,2023-11-18,인천광역시 중구 운남서로 100 영종동행정복지센터 2층 어린이합창단 연습실,인천,중구,37.4940654398829,126.531404784892
87,(재)인천중구문화재단,가족생태예술교육 소리로 이해하는 생태 이야기,,꿈다락예술문화학교,"음악,기타","아동,중장년",,,중구 구읍로 63 영종역사관,인천,중구,37.4890698389967,126.577714541121
88,(재)인천중구문화재단,꿈의무용단 인천중구,"2, 3층",꿈의무용단 운영사업,무용,"아동,청소년",2024-04-06,2024-11-09,인천광역시 중구 신포로27번길 83-1,인천,중구,37.4733735583709,126.620916274984
89,(재)인천중구문화재단,꿈의무용단 '인천중구',2층 내리마루 문화쉼터,꿈의무용단 운영사업,무용,"아동,청소년",2025-03-08,2025-12-13,인천광역시 중구 신포로46번길 5,인천,중구,37.4727659325745,126.62686442177
90,(재)행복북구문화재단,꿈의 무용단 대구북구,어울아트센터,꿈의 무용단 운영사업,무용,"아동,청소년",2025-05-24,2025-12-06,대구광역시 북구 구암로 47,대구,북구,35.935867349278,128.545128715408
91,(재)행복북구문화재단,예술 시간 여행! 아트타임슬립,어울아트센터,2024 꿈다락 문화예술학교,"음악,미술","아동,청소년",2024-09-21,2024-11-23,대구광역시 북구 구암로 47,대구,북구,35.935867349278,128.545128715408
92,(재)정선아리랑문화재단,꿈의 오케스트라 정선,사북청소년장학센터,2024 꿈의 오케스트라 '꿈의 향연',음악,"아동,청소년",2024-02-29,2024-05-23,강원특별자치도 정선군 사북읍 사북6길 12-6,강원특별자치도,정선군,37.2286266400294,128.81939910895
93,(재)화순군문화관광재단,2025생활밀착형 문화예술교육지원사업 '가가호호' 화순,가족센터 및 화순읍(프로그램별 장소 상이),2025생활밀착형 문화예술교육지원사업 '가가호호' 화순,"국악,음악,공예,사진,문학,연극/뮤지컬,융복합",,2025-06-14,2025-11-30,전라남도 화순군 화순읍 대교로 11,전남,화순군,35.0635719223406,126.980445859734
94,(사)대구스트릿컬쳐팩토리,2024 예술로 어울림 사업 취향의숲 _ 성과 공유회,카페 아르토,2024 예술로 어울림,"음악,영화,문학,연극/뮤지컬,무용,융복합,기타","청년,중장년",2024-11-13,2024-11-13,대구광역시 남구 봉덕공원길 5,대구,남구,35.8419210545753,128.605694411439
95,(사)대구스트릿컬쳐팩토리,2024 예술로 어울림 사업 취향의숲 _ 결과 발표회,대명공연예술센터,2024 예술로 어울림,"음악,영화,문학,연극/뮤지컬,융복합,기타","청년,중장년",2024-11-10,2024-11-10,대구광역시 남구 계명중앙1길 54,대구,남구,35.8557143197696,128.582580492925
96,(사)대구스트릿컬쳐팩토리,2024 예술로 어울림 사업 취향의숲 남구편 시즌2,대명공연예술센터,2024 예술로 어울림,"음악,영화,문학,연극/뮤지컬,무용","청년,중장년",2024-07-12,2024-11-13,대구광역시 남구 계명중앙1길 54,대구,남구,35.8557143197696,128.582580492925
97,(사)대구스트릿컬쳐팩토리,2024 예술로 어울림 사업 취향의숲 남구편 시즌1,대명공연예술센터,2024 예술로 어울림,"음악,영화,문학,연극/뮤지컬,무용,융복합,기타","청년,중장년",2024-07-12,2024-11-13,대구광역시 남구 계명중앙1길 54,대구,남구,35.8557143197696,128.582580492925
98,(재)이수진한국인형극재단,한국전통인형제작워크샵,라동1층,2024 KPPF CONSERVATION PROJECT,"국악,공예,전통","청년,중장년",2024-11-17,2024-12-15,서울특별시 서대문구 통일로 333,서울,서대문구,37.5802075203852,126.951828115476
99,(문화집단)너느로,Drop the Play,은뜨락@ 상가3호,2024 생애주기별 문화예술교육 지원사업 「꿈다락 문화,연극/뮤지컬,"아동,청소년",2024-07-20,2024-10-05,서울특별시 은평구 통일로 972,서울,은평구,37.6301758375471,126.91991625048
100,(문화집단)너느로,몸으로말해요,,꿈다락예술문화학교,무용,노년,,,서울시 은평구 서오릉로87 은평구평생학습관 미디어홀,서울,은평구,37.6078236368099,126.921183962316
101,(문화집단)너느로,생애전환 문화예술교육 예술가와 함께 떠나는 희곡여행,,꿈다락예술문화학교,연극/뮤지컬,"청년,중장년",,,은평구 통일로 972 은뜨락@ 상가3호 나무가모인숲,서울,은평구,37.6301758375471,126.91991625048
102,공터,드림아트랩 4.0 벙커 465-16; 자청비 (제주/서귀포),,꿈다락예술문화학교,"문학,융복합",아동,,,제주시 서광로29길 17 이도1동청소년문화의집,제주특별자치도,제주시,33.5017930865038,126.526216262488
103,공터,"예술쉼표 먹고 살기 바쁜데, 무슨 문화夜: 함께 모여 만드는 음악 레시피",,꿈다락예술문화학교,음악,"청년,중장년",,,제주시 서문로 29 지하 비밀아지트,제주특별자치도,제주시,33.5105634215441,126.514575739506
104,리앗,감각 더하기 감정 빼기,뚜띠콜로리살롱,2024 꿈다락 문화예술학교,"음악,사진,미술,미디어,융복합,기타",중장년,2024-10-07,2024-11-07,제주특별자치도 제주시 애월읍 장전로 91,제주특별자치도,제주시,33.4512488417483,126.387825352344
105,극단 일상,2023 충북 꿈다락토요문화학교 - 연극 그 잡채?,음성교육도서관 B1층,,연극,"아동,청소년",2023-05-04,2023-11-30,충청북도 음성군 음성읍 시장로126번길 29,충북,음성군,36.9396819347257,127.693620519476
106,극단 지금,청소년X예술가 또 다른 시선,,꿈다락예술문화학교,연극/뮤지컬,청소년,,,의정부시 의정로88번길 9 흥선 청소년 문화의 집,경기,의정부시,37.7408257425786,127.035530701349
107,고창 모양 청소년 오케스트라,꿈의 오케스트라,고창문화원,2024 꿈의 향연 고창,음악,"아동,청소년",2024-02-01,2024-11-30,전북특별자치도 고창군 고창읍 천변북로 119,전북특별자치도,고창군,35.434435169685,126.705338881467
108,극단 아티(공연예술단체 아티스트릿),설화탐사대,금곡종합사회복지관,꿈다락 문화예술학교,연극/뮤지컬,아동,2025-07-14,2025-10-23,부산광역시 북구 효열로 144,부산,북구,35.2588894720606,129.015507835687
109,극단 아티(공연예술단체 아티스트릿),"연극으로 풀어보는 사회문제 - '이거, 심상치가 않네'",청년복합문화공간 스페이스119,꿈다락 문화예술학교,연극/뮤지컬,,2025-07-17,2025-10-23,부산광역시 북구 금곡대로616번길 139,부산,북구,35.2667491850867,129.017361594275
110,극단 신세계,<리-초이스 프로젝트 : 노년X리-장례희망(Dream),2층 신세계 스튜디오,「꿈다락 문화예술학교」,"영화,연극/뮤지컬",노년,2025-07-20,2025-11-30,서울특별시 성북구 동소문로20길 37-13,서울,성북구,37.5911510402807,127.017524431281
111,극단 신세계,<리-초이스 프로젝트 : 신중년X리-잡(Job)>,2층 신세계 스튜디오,「꿈다락 문화예술학교」,"영화,연극/뮤지컬",중장년,2025-07-20,2025-11-30,서울특별시 성북구 동소문로20길 37-13,서울,성북구,37.5911510402807,127.017524431281
112,극단 신세계,생애전환 문화예술학교 신중년의 신세계 : My Home History,,꿈다락예술문화학교,연극/뮤지컬,중장년,,,서울 성북구 동소문로20길 37-13 3층,서울,성북구,37.5911510402807,127.017524431281
113,극단 신세계,<리-초이스 프로젝트 : 청년X리-푸드(Food)>,2층 신세계스튜디오,「꿈다락 문화예술학교」,"영화,연극/뮤지컬",청년,2025-07-20,2025-11-30,서울특별시 성북구 동소문로20길 37-13,서울,성북구,37.5911510402807,127.017524431281
114,극단 신세계,청소년X예술가 학교폭력 스탑 프로젝트 : 연극 프로불편러,,꿈다락예술문화학교,연극/뮤지컬,청소년,,,서울 성북구 동소문로20길 37-13 3층,서울,성북구,37.5911510402807,127.017524431281
115,극단 신세계,<트렌드 컨트롤 2024 : 액티브X시니어>,3층 신세계 연습실,<꿈다락 문화예술학교>,연극/뮤지컬,노년,2024-07-07,2024-10-27,서울특별시 성북구 동소문로20길 37-13,서울,성북구,37.5911510402807,127.017524431281
116,극단 신세계,<트렌드 컨트롤 2024 : 디지털X신중년>,3층,<꿈다락 문화예술학교>,연극/뮤지컬,중장년,2024-07-07,2024-10-27,서울특별시 성북구 동소문로20길 37-13,서울,성북구,37.5911510402807,127.017524431281
117,극단 신세계,<트렌드 컨트롤 2024 : 다이어트X청년>,3층 신세계 연습실,<꿈다락 문화예술학교>,"영화,연극/뮤지컬",청년,2024-07-07,2024-10-27,서울특별시 성북구 동소문로20길 37-13,서울,성북구,37.5911510402807,127.017524431281
118,극단 신세계,예술쉼표 청년의 신세계 : My Home History,,꿈다락예술문화학교,연극/뮤지컬,청년,,,서울 성북구 동소문로20길 37-13 3층,서울,성북구,37.5911510402807,127.017524431281
119,극단 청사진,숨은 나를 찾기 - 너 마스크 속에서 뭐해?,B1,꿈다락예술문화학교,연극/뮤지컬,"아동,청소년",2023-07-01,2024-10-19,서울특별시 구로구 경인로19길 16,서울,구로구,37.4964234849446,126.842630456926
120,극단 청사진,청춘타운 레시피,B1 극단 청사진 스튜디오,꿈다락문화예술학교,연극/뮤지컬,"아동,청소년,청년",2024-08-02,2024-11-16,서울특별시 구로구 경인로19길 16,서울,구로구,37.4964234849446,126.842630456926
121,극단 토박이,연극도전기-그대는 반짝이는 청춘,4층 민들레소극장,2025 예술시민문화예술교육지원사업,연극/뮤지컬,청년,2025-05-16,2025-11-01,광주광역시 동구 동계천로 111,광주,동구,35.1508738930324,126.922742243776
122,아트 컴퍼니 손,도서관 연계 프로그램 연극으로 피어나는 왁자지껄 도서관 (초등 저),,꿈다락예술문화학교,"미술,문학,연극/뮤지컬",아동,,,"춘천시 후만로 116번길 27, 1층 까루도서관",강원특별자치도,춘천시,37.8749479643704,127.758423661616
123,아트 컴퍼니 손,도서관 연계 프로그램 연극으로 피어나는 왁자지껄 도서관 (초등 고),,꿈다락예술문화학교,"미술,문학,연극/뮤지컬",아동,,,"춘천시 후만로 116번길 27, 1층 까루도서관",강원특별자치도,춘천시,37.8749479643704,127.758423661616
124,극단 청년극장,연극몬 GO!,청년뜨락 5959,생애주기문화예술교육지원사업,연극/뮤지컬,청년,2025-04-29,2025-09-02,충청북도 청주시 상당구 상당로59번길 59,충북,청주시 상당구,36.6335138022922,127.48730240751
125,라움 프라다바코,바다몹sea몹see,,꿈다락예술문화학교,"음악,무용",청년,,,수영구 광안해변로370번길 9-8 4층 라움 프라다바코,부산,수영구,35.1556025524695,129.133851672075
126,극단 드라마라운지,"다시, 이야기하다. (Remember)(2기)",3층 세미나실,2025 꿈다락 문화예술학교,연극/뮤지컬,노년,2025-09-10,2025-11-08,서울특별시 마포구 독막로 165,서울,마포구,37.5477347268018,126.932061794829
127,극단 드라마라운지,파이팅 Go!(2기),노원중앙도서관 2층 이야기방,2025 꿈다락 문화예술학교,연극/뮤지컬,청년,2025-09-10,2025-11-12,서울특별시 노원구 노원로34길 43,서울,노원구,37.6610997483415,127.065009597423
128,극단 드라마라운지,"다시, 이야기하다. (Remember)(1기)",마포구립서강도서관 3층 세미나실,2025 꿈다락 문화예술학교,연극/뮤지컬,노년,2025-06-19,2025-08-08,서울특별시 마포구 독막로 165,서울,마포구,37.5477347268018,126.932061794829
129,극단 드라마라운지,파이팅 Go!(1기),노원중앙도서관 2층 이야기방,2025 꿈다락 문화예술학교,연극/뮤지컬,청년,2025-06-18,2025-08-13,서울특별시 노원구 노원로34길 43,서울,노원구,37.6610997483415,127.065009597423
130,김해 인간중심표현예술 치유센터,"인간 중심 표현예술로 만나는 소중한 나, 행복한 우리",김해 인간중심표현예술 치유센터,,"연극,음악,미술,문학,융합","청년,중장년,노년",2023-04-01,2023-12-31,경상남도 김해시 우암로 137 202호,경남,김해시,35.2415350595702,128.86599249469
131,"안녕, 예술가",따뜻함을 마셔요 2,3층 동아리실,2024 예술로 어울림,미술,중장년,2024-11-20,2024-12-25,부산광역시 중구 동광길 49,부산,중구,35.1050072146227,129.034480223268
132,"안녕, 예술가",따뜻함을 마셔요,40계단문화관 3층 세미나실,2024 예술로 어울림,미술,중장년,2024-07-03,2024-08-14,부산광역시 중구 동광길 49,부산,중구,35.1050072146227,129.034480223268
133,"안녕, 예술가",날아라 셔틀콕! 2,4층 활동실,2024 예술로 어울림,미술,아동,2024-11-17,2024-12-22,부산광역시 중구 동광길 49,부산,중구,35.1050072146227,129.034480223268
134,"안녕, 예술가",시창작 스터디,부산광역시 중구문화원 세미나실,2024 예술로 어울림,문학,"청년,중장년,노년",2024-07-06,2024-08-14,부산광역시 중구 복병산길 20,부산,중구,35.103633161342,129.033531847605
135,"안녕, 예술가",식물과 함께 자라나는 우리,부산광역시중구문화원 다목적실2,2024 예술로 어울림,미술,청년,2024-09-07,2024-10-26,부산광역시 중구 복병산길 20,부산,중구,35.103633161342,129.033531847605
136,"안녕, 예술가",사진 워크숍: 중앙동을 만나는 방법,3층 동아리실,2024 예술로 어울림,"사진,미술",,2024-08-28,2024-09-25,부산광역시 중구 동광길 49,부산,중구,35.1050072146227,129.034480223268
137,"안녕, 예술가",날아라 셔틀콕!,4층 활동실,2024 예술로 어울림,미술,아동,2024-09-04,2024-10-09,부산광역시 중구 동광길 49,부산,중구,35.1050072146227,129.034480223268
138,"안녕, 예술가","낭만적 걸음, 거리의 사유",부산광역시중구문화원 다목적실 2,2024 예술로 어울림,"미술,융복합",청년,2024-09-14,2024-10-05,부산광역시 중구 복병산길 20,부산,중구,35.103633161342,129.033531847605
139,"안녕, 예술가",사각사각 공작소,부산광역시중구문화원 다목적실 2,2024 예술로 어울림,미술,,2024-11-01,2024-12-21,부산광역시 중구 복병산길 20,부산,중구,35.103633161342,129.033531847605
140,"안녕, 예술가",종이 실험실: 종이와 아우라,부산광역시중구문화원 다목적실 2,2024 예술로 어울림,미술,,2024-11-02,2024-12-21,부산광역시 중구 복병산길 20,부산,중구,35.103633161342,129.033531847605
141,㈜여원,아름다운 저녁노을 아름다운 인생 한편,들락날락 카페,,"융복합,기타","중장년,노년",2023-04-13,2023-11-25,충청북도 청주시 흥덕구 직지대로753번길 56,충북,청주시 흥덕구,36.6464195656042,127.476275154451
142,꽃다발,라라랜드,,,기타,청소년,2022-09-01,2022-09-30,서울특별시 강북구 덕릉로41길 91-12,서울,강북구,37.6378982870021,127.027476538014
143,노마드,할마니네 메뉴판,반곡경로당,꿈다락 문화예술학교,미술,노년,2024-06-24,2024-11-11,전북특별자치도 김제시 금산면 구성3길 97,전북특별자치도,김제시,35.7392449389027,127.006614336139
144,늘해랑,"내 마음 머물 꽃, 여기에",,꿈다락예술문화학교,"연극/뮤지컬,미디어",노년,,,서대문구 통일로27길 19 홍재1동 주민자치회관,서울,서대문구,37.5831627770462,126.948411411726
145,늘해랑,꿈꾸는 소행성 B612 프로젝트 와?(웅덩이 와)자自 (자신 자)작作 (지을 작)!,,꿈다락예술문화학교,"문학,연극/뮤지컬","청년,중장년",,,안양시 만안구 안양동 1054-2 지하 매드 액터스,경기,안양시 만안구,37.3858641825471,126.906525495448
146,늘해랑,끄적임 감정서랍 프로젝트  유자 에세이 ,,꿈다락예술문화학교,"음악,연극/뮤지컬",청소년,,,서구 완정로178번길 37 인천 유스튜디오,인천,서구,37.6049144253891,126.659237071306
147,늘해랑,청소년x예술가 우리들의 소소하고 반짝이는 취향 백신 콘서트-샤인 머쓱햇 콘서트,,꿈다락예술문화학교,"연극/뮤지컬,미디어",아동,,,광명시 안재로6번길 31-1 지하1층 동굴연습실 광명점,경기,광명시,37.4607185915345,126.874898729546
148,늘해랑,"내 마음 둘 꽃, 여기에",,꿈다락예술문화학교,"연극/뮤지컬,미디어",노년,,,금천구 가산동 144-3 3층 금천누리종합사회복지관,서울,금천구,37.4768698056032,126.891752121307
149,리딩톤,맛있는 연주,대구여자단기청소년쉼터,,음악,청소년,2023-06-01,2023-11-30,대구광역시 중구 중앙대로81길 66-5,대구,중구,35.869932006114,128.590123325509
150,모아랩,"나의 일상, 예술로 고팡에 담다",b1 맑은샘 스튜디오,꿈다락 문화예술학교,"음악,미술","아동,청소년",2024-05-11,2024-09-28,제주특별자치도 제주시 국기로 8,제주특별자치도,제주시,33.481171373942,126.489629471301
151,소리로,모두작곡가 - 숨숨집 정모의 음악회,씨즈 두더집,2024 꿈다락 문화예술학교,음악,청년,2024-07-05,2024-09-13,서울특별시 은평구 불광로 89-4,서울,은평구,37.6151051848936,126.932410563018
152,소리로,[모두작곡가] 내 삶이 노래되어,2층,꿈다락문화예술학교,음악,노년,2025-07-01,2025-11-14,경기도 안양시 만안구 병목안로130번길 166,경기,안양시 만안구,37.3931229619638,126.908432546045
153,소리로,모두작곡가 - 이팔청춘 작곡가,율목사회복지관,2024 꿈다락 문화예술학교,음악,노년,2024-07-02,2024-09-10,경기도 안양시 만안구 병목안로130번길 166,경기,안양시 만안구,37.3931229619638,126.908432546045
154,소리로,[모두작곡가] 숨숨집 싱송라,씨즈 두더집(두더지 땅굴) 2층 강의실,꿈다락,음악,"청년,중장년",2025-07-02,2025-11-19,서울특별시 은평구 불광로 89-4,서울,은평구,37.6151051848936,126.932410563018
155,수필집,함께 심고 함께 빚다,동부창고 36동 교육실,충북문화예술교육 지원사업 '헬로우아트랩',공예,"아동,청년,중장년",2025-08-05,2025-08-19,충청북도 청주시 청원구 덕벌로 30,충북,청주시 청원구,36.6545173575658,127.491317472263
156,쎄라비,"그 해 봄날, 마음의 숲을 거닐다",포천초등학교 위클래스,,"연극,음악,미술","아동,청소년",2023-04-01,2023-11-30,부산광역시 북구 시랑로 115,부산,북구,35.1965304715698,129.009397720124
157,쎄라비,우리가족 애(愛)피소드,3층 313호,"국민참여형 예술치유 워크숍 치유도, 예술로기획형 문화예술치유 프로그램 「마음치유, 봄처럼」",음악,"아동,청소년,중장년,노년",2024-05-25,2024-05-25,부산광역시 금정구 장전온천천로 51,부산,금정구,35.2295937783773,129.088815730713
158,쎄라비,날지 않는 꿈도 괜찮아,신덕중학교,"문화예술치유 프로그램 지원사업 「마음치유, 봄처럼」","음악,미술,융복합",청소년,2024-05-08,2024-11-30,부산광역시 북구 함박봉로140번가길 27,부산,북구,35.2031697903196,129.030802931394
159,쎄라비,슬로우고고 - 포옹,"2-3층, 사하구치매안심센터","문화예술치유 프로그램 지원사업 「마음치유, 봄처럼」","음악,미술,연극/뮤지컬,무용,융복합",노년,2024-05-24,2024-09-13,부산광역시 사하구 까치고개로 50-10,부산,사하구,35.104483975363,129.00634623214
160,쎄라비,날지 않는 꿈도 괜찮아,포천초등학교,"문화예술치유 프로그램 지원사업 「마음치유, 봄처럼」","음악,연극/뮤지컬",청소년,2024-05-02,2024-11-30,부산광역시 북구 시랑로 115,부산,북구,35.1965304715698,129.009397720124
161,쎄라비,<치유도 예술로> 포옹,박차정 세미나실,"국민참여형 예술치유 워크숍 치유도, 예술로","음악,미술",노년,2024-05-23,2024-05-26,부산광역시 부산진구 시민공원로 73,부산,부산진구,35.1655426683447,129.055839791494
162,쎄라비,나 욜로 산다 (feat. YOLO밴드),부산광역시 건강가정지원센터,,음악,중장년,2023-05-01,2023-11-30,부산광역시 북구 효열로 256,부산,북구,35.2681661241867,129.021061232635
163,쎄라비,종이비행기,푸른열매청소년회복지원센터,,음악,청소년,2023-05-01,2023-11-30,부산광역시 금정구 금강로565번길 63,부산,금정구,35.2585888110185,129.08455581296
164,쎄라비,슬로우고고 - 씽트콤,"2층, 중구치매안심센터","문화예술치유 프로그램 지원사업 「마음치유, 봄처럼」",음악,노년,2024-05-02,2024-08-29,부산광역시 중구 흑교로 48,부산,중구,35.1037739467834,129.025356255623
165,쎄라비,날지 않는 꿈도 괜찮아,동수영중학교,"문화예술치유 프로그램 지원사업 「마음치유, 봄처럼」",음악,청소년,2024-05-07,2024-11-30,부산광역시 수영구 광서로 74,부산,수영구,35.1645689772671,129.103660228011
166,쎄라비,슬로우고고 - 내인생의#,"6층, 동구치매안심센터","문화예술치유 프로그램 지원사업 「마음치유, 봄처럼」","음악,연극/뮤지컬",노년,2024-05-13,2024-08-26,부산광역시 동구 구청로 14,부산,동구,35.1283311370056,129.04500561611
167,쎄라비,"그 해 봄날, 기억의 숲을 거닐다",부산강서구치매안심센터,,"연극,음악,미술",노년,2023-04-01,2023-11-30,부산광역시 강서구 낙동북로102번길 76,부산,강서구,35.2162042962391,128.937670995547
168,얼씨구,"모여라, 얼쑤! / 우리는 아리랑 크리에이터",괴산군 청소년 문화의 집,문화예술교육배달지원사업,"국악,전통","아동,청소년",2025-07-12,2025-08-23,충청북도 괴산군 괴산읍 임꺽정로 99-15,충북,괴산군,36.8133008108594,127.786021917148
169,얼씨구,"<떠나자, 조선 놀이터!>",푸른내 문화센터,충북문화예술교육배달지원사업,"국악,음악,전통,융복합","아동,청소년",2024-07-25,2024-08-09,충청북도 괴산군 청천면 금관로 475,충북,괴산군,36.6588137419859,127.738954331065
170,얼씨구,"<떠나자, 조선 놀이터!>",청소년 문화의 집,충북문화예술교육배달지원사업,"국악,음악,전통,융복합","아동,청소년",2024-07-25,2024-08-02,충청북도 괴산군 괴산읍 임꺽정로 99-15,충북,괴산군,36.8133008108594,127.786021917148
171,여우문,여우문과 함께하는 ‘덩덕쿵! 마음 두드림’,북구치매안심센터,"2025 문화로 치유 지원사업  「마음치유, 봄처럼」","국악,미술",노년,2025-05-12,2025-11-10,광주광역시 북구 북문대로 234,광주,북구,35.186966945182,126.866876796159
172,여우문,여우문과 함께하는 ‘덩덕쿵! 마음 두드림’,장성군치매안심센터,"2025 문화로 치유 지원사업  「마음치유, 봄처럼」","국악,미술",노년,2025-05-12,2025-11-10,전라남도 장성군 장성읍 성산5길 17,전남,장성군,35.3233002988534,126.808367005468
173,여우문,여우문과 함께하는 ‘덩덕쿵! 마음 두드림’,담양치매안심센터,"2025 문화로 치유 지원사업  「마음치유, 봄처럼」","국악,미술",노년,2025-05-12,2025-11-10,전라남도 담양군 담양읍 완동길 10-11,전남,담양군,35.3250279491981,126.981239742229
174,여우문,여우문과 함께하는 ‘덩덕쿵! 마음 두드림’,치매안심센터,"2025 문화로 치유 지원사업  「마음치유, 봄처럼」","국악,미술",노년,2025-05-12,2025-11-10,광주광역시 남구 효우로 80,광주,남구,35.1063134912795,126.903575909183
175,오소록,개미실마을 ASMR,청주 개미실마을,,"음악,공예,기타",청년,2023-08-05,2023-10-14,충청북도 청주시 상당구 남일면 가중길 13-10 1층,충북,청주시 상당구,36.5745500923672,127.477224717957
176,오소록,오래된 사람들 이야기,오소록 1층,,"융복합,기타","청소년,청년,중장년",2023-07-01,2023-07-30,충청북도 청주시 상당구 남일면 가중길 13-10,충북,청주시 상당구,36.5745500923672,127.477224717957
177,오소록,게으른 개미실 꽃밥상,오소록 1층,,"융복합,기타","중장년,노년",2023-05-31,2023-08-02,충청북도 청주시 상당구 남일면 가중길 13-10,충북,청주시 상당구,36.5745500923672,127.477224717957
178,우리화,생애전환 문화예술학교 나를 찾는 두드림 : 똑똑! 시니어 미디어 아트,,꿈다락예술문화학교,"미술,융복합",중장년,,,"종로구 송월길 14-3 돈의문박물관마을, 한옥 8호",서울,종로구,37.5688253913595,126.968525728353
179,순한곶 제주,자연(숲)과 함께하는 시간,,생애주기 문화예술교육 지원사업 '꿈다락 문화예술학교',미술,"청년,중장년,노년",2024-08-06,2024-10-16,제주특별자치도 제주시 탑동로11길 13,제주특별자치도,제주시,33.5171270552429,126.517938987775
180,순한곶 제주,우리 이야기로 만드는 송캠프,,꿈다락예술문화학교,음악,아동,,,제주시 탑동로11길 13 . 1층 순한곶 제주,제주특별자치도,제주시,33.5171270552429,126.517938987775
181,순한곶 제주,자연과함께하는시간,순한곶제주와 제주의 곶자왈,2025 생애주기 문화예술교육 <꿈다락 문화예술학교>,미술,"중장년,노년",2025-08-19,2025-10-29,제주특별자치도 제주시 탑동로11길 13,제주특별자치도,제주시,33.5171270552429,126.517938987775
182,순한곶 제주,생애전환 문화예술학교 자연(숲)과 함께하는 시간,,꿈다락예술문화학교,미술,"청년,중장년",,,제주시 탑동로11길 13 . 1층 순한곶 제주,제주특별자치도,제주시,33.5171270552429,126.517938987775
183,순한곶 제주,드림아트랩4.0 드림아트랩 in 제주,,꿈다락예술문화학교,"미술,융복합","아동,청소년",,,제주시 탑동로11길 13 . 1층 순한곶 제주,제주특별자치도,제주시,33.5171270552429,126.517938987775
184,달나라 로켓 펀치,탄소중립 마을공동체 만들기,맑은물상상누리 창의센터 함께홀,2024 예술로 어울림,"공예,미술,융복합,기타",,2024-08-07,2024-10-23,경기도 시흥시 공단2대로 14,경기,시흥시,37.3372531320378,126.696723922979
185,달나라 로켓 펀치,안산에서 인연을 안산팰리스,호텔스퀘어 안산 튤립홀,2024 예술로 어울림,"음악,영화,연극/뮤지컬,미디어,융복합,기타","청년,중장년",2024-11-10,2024-11-10,경기도 안산시 단원구 동산로 81,경기,안산시 단원구,37.3144843231636,126.798985585428
186,달나라 로켓 펀치,뮤지컬 읽어주는 사람들,경기 내일스퀘어 안산 다목적실(연습실),2024 예술로 어울림,"연극/뮤지컬,무용",,2024-08-07,2024-11-16,경기도 안산시 단원구 선부로 312,경기,안산시 단원구,37.3429238069071,126.829188058312
187,달나라 로켓 펀치,패밀리 예술토랑,경기 내일스퀘어 안산,2024 예술로 어울림,연극/뮤지컬,청년,2024-08-10,2024-11-16,경기도 안산시 단원구 선부로 312,경기,안산시 단원구,37.3429238069071,126.829188058312
188,달나라 로켓 펀치,챗지피티를 활용한 그림책 만들기,맑은물상상누리 창의센터 함께홀,2024 예술로 어울림,"디자인,미술,미디어,융복합,기타",,2024-09-11,2024-10-23,경기도 시흥시 공단2대로 14,경기,시흥시,37.3372531320378,126.696723922979
189,달나라 로켓 펀치,책과 연극이 함께하는 세계 시민 교육,맑은물상상누리 문화관,2024 예술로 어울림,"문학,연극/뮤지컬,기타","청년,중장년",2024-07-30,2024-11-19,경기도 시흥시 공단2대로 14,경기,시흥시,37.3372531320378,126.696723922979
190,달나라 로켓 펀치,예술로 아트워크 페스티벌,맑은물상상누리센터 비젼센터 및 일대,2024 예술로 어울림,"국악,음악,영화,디자인,사진,미술,연극/뮤지컬,무용,미디어,융복합,기타",,2024-11-16,2024-11-16,경기도 시흥시 공단2대로 14,경기,시흥시,37.3372531320378,126.696723922979
191,달나라 로켓 펀치,토끼와 자라가 노니는 환경국악뮤지컬,맑은물상상누리 문화관,2024 예술로 어울림,"국악,연극/뮤지컬",,2024-08-05,2024-11-18,경기도 시흥시 공단2대로 14,경기,시흥시,37.3372531320378,126.696723922979
192,달나라 로켓 펀치,룰루랄라 음악,한국산업단지공단 대회의실,2024 예술로 어울림,"영화,연극/뮤지컬,미디어,융복합,기타",,2024-07-30,2024-11-08,경기도 안산시 단원구 동산로 57,경기,안산시 단원구,37.314462100946,126.79673687214
193,달나라 로켓 펀치,슬기로운 댄스생활,경기 내일스퀘어 안산 강의실,2024 예술로 어울림,"연극/뮤지컬,융복합,기타",청년,2024-08-13,2024-09-10,경기도 안산시 단원구 선부로 312,경기,안산시 단원구,37.3429238069071,126.829188058312
194,김윤지 연구소,청소년X예술가 전지적 연극 시점,,꿈다락예술문화학교,연극/뮤지컬,청소년,,,수영구 수미로35번길 40 구락생활문화센터 마루연습실,부산,수영구,35.1753268754923,129.115259749693
195,내손의 반딧불,낯설은 경험 (청소년),,꿈다락예술문화학교,미술,아동,,,의왕시 안양판교로100 엘센트로 푸른도서관,경기,의왕시,37.3956659568923,126.983336557687
196,내손의 반딧불,낯설은 경험 (청년·중장년),,꿈다락예술문화학교,미술,"청년,중장년",2023-07-23,2023-12-10,의왕시 안양판교로100 엘센트로 푸른도서관,경기,의왕시,37.3956659568923,126.983336557687
197,제천시 좋아서 하는 극단,새 어른의 연극 프로젝트 <행복 파트너>,2층,2024 꿈다락 문화예술교육학교,연극/뮤지컬,노년,2024-05-17,2024-12-31,충청북도 제천시 고암로 82,충북,제천시,37.1589637741638,128.214691403157
198,광양시 사라실 예술촌,도서관 연계 프로그램_뒤죽박죽 도서관,전라남도교육청 광양도서관,2024 꿈다락 문화예술학교,"문학,융복합","아동,청소년",2024-07-30,2024-08-03,전라남도 광양시 중마로 262,전남,광양시,34.9477670388432,127.690980573998
199,광양시 사라실 예술촌,떠들썩한 예술가 도서관,광양시 사라실 예술촌,2025 생애주기별 문화예술교육 지원사업,,아동,2025-07-31,2025-08-11,전라남도 광양시 광양읍 사곡로 201,전남,광양시,34.9620839381717,127.626636180811
200,광양시 사라실 예술촌,꼬마작곡가_들쑥날쑥 악보탐험,광양시 사라실 예술촌,2024 꿈다락 문화예술학교,음악,아동,2024-07-06,2024-11-16,전라남도 광양시 광양읍 사곡로 201,전남,광양시,34.9620839381717,127.626636180811
201,광양시 사라실 예술촌,뚝딱뚝딱 탐험가 학교,광양시 사라실 예술촌,2025 생애주기별 문화예술교육 지원사업,,아동,2025-09-06,2025-11-22,전라남도 광양시 광양읍 사곡로 201,전남,광양시,34.9620839381717,127.626636180811
202,광양시 사라실 예술촌,기웃기웃 탐정 사진관,광양시 사라실 예술촌,2025 생애주기별 문화예술교육 지원사업,,아동,2025-06-21,2025-08-30,전라남도 광양시 광양읍 사곡로 201,전남,광양시,34.9620839381717,127.626636180811
203,우리의 미술치료 ,2025 내가 그리는 화양연화,동두천시보건소 별관 1층,"2025 문화로 치유 지원사업 「마음치유, 봄처럼」",융복합,노년,2025-07-31,2025-11-10,경기도 동두천시 중앙로 275,경기,동두천시,37.9060609206634,127.05396956196
204,우리의 미술치료 ,2024 마음 봄 소풍,의정부시정신건강복지센터,"2024 문화예술치유 프로그램 지원사업 「마음치유, 봄",융복합,청년,2024-04-01,2024-04-30,경기도 의정부시 범골로 158,경기,의정부시,37.7357895471272,127.042725505003
205,우리의 미술치료 ,2024 예술로 마법피리,양주시정신건강복지센터,"2024 마음치유, 봄처럼[정신건강복지센터 협력)",융복합,청년,2024-04-01,2024-11-30,경기도 양주시 삼숭로38번길 5,경기,양주시,37.7975803689408,127.101453735484
206,우리의 미술치료 ,2024 나비처럼 훨훨~ 예술로 날자,동두천시정신건강복지센터,"2024 문화예술치유 프로그램 지원사업 「마음치유, 봄",융복합,"청년,중장년",2024-04-01,2024-11-30,경기도 동두천시 거북마루로 49,경기,동두천시,37.8962642877251,127.051630448329
207,우리의 미술치료 ,2025  위풍당당 내 청춘,7층,"2025 문화로 치유 지원사업 「마음치유, 봄처럼」",융복합,노년,2025-08-18,2025-10-29,경기도 양주시 화합로1426번길 90,경기,양주시,37.8381418084835,127.068036001382
208,우리의 미술치료 ,2025  예술로은빛날개!,의정부치매안심센터,"2025 문화로 치유 지원사업 「마음치유, 봄처럼」",융복합,노년,2025-05-13,2025-10-28,경기도 의정부시 민락로 360,경기,의정부시,37.7531898155774,127.113773313956
209,우리의 미술치료 ,2025 예술로마법피리,포천시 보건소 3층,"2025 문화로 치유 지원사업 「마음치유, 봄처럼」",융복합,"청년,중장년",2025-05-09,2025-10-17,경기도 포천시 포천로 1612,경기,포천시,37.9008261233629,127.201260916689
210,우리의 미술치료 ,2025  마음 봄 소풍,2층,"2025 문화로 치유 지원사업 「마음치유, 봄처럼」",융복합,청년,2025-05-27,2025-10-28,경기도 의정부시 범골로 158,경기,의정부시,37.7357895471272,127.042725505003
211,우리의 미술치료 ,2025 나비처럼 훨훨~ 예술로 날자,동두천시보건소 별관 2층,"2025 문화로 치유 지원사업 「마음치유, 봄처럼」",융복합,"중장년,노년",2025-05-08,2025-09-25,경기도 동두천시 중앙로 167,경기,동두천시,37.8966121948147,127.051716984841
212,광주시 청소년수련관,드라마틱 뮤즈,광주시 청소년수련관,꿈다락문화예술학교,연극/뮤지컬,청소년,2025-08-16,2025-11-08,경기도 광주시 회안대로 350-17,경기,광주시,37.3855055917434,127.235787691446
213,광주시 청소년수련관,Compose with 美,광주시 청소년수련관,꿈다락문화예술학교,음악,청소년,2025-08-14,2025-11-22,경기도 광주시 회안대로 350-17,경기,광주시,37.3855055917434,127.235787691446
214,광주시 청소년수련관,[드림아트랩4.0] 발걸:음파음파,광주시 청소년수련관,꿈다락문화예술학교,"음악,미디어,융복합",청소년,2024-09-28,2024-11-30,경기도 광주시 회안대로 350-17,경기,광주시,37.3855055917434,127.235787691446
215,광주시 청소년수련관,[꼬마작곡가] Compose with 美,광주시 청소년수련관,꿈다락문화예술학교,"음악,미디어,융복합",청소년,2024-08-05,2024-11-23,경기도 광주시 회안대로 350-17,경기,광주시,37.3855055917434,127.235787691446
216,꿈노리 예술교육연구소,예술로 은빛마을,,꿈다락예술문화학교,"음악,미술,무용",노년,,,성북구 한천로 708 장위어르신행복지원센터 3층 장위실버복지센터,서울,성북구,37.62009081725,127.053512520284
217,꿈노리 예술교육연구소,은빛학교에 울리는 학교종,삼선실버복지센터,2024 <꿈다락 문화예술학교>,"음악,미술,융복합",노년,2024-08-13,2024-10-29,서울특별시 성북구 삼선교로18길 41,서울,성북구,37.5891539114181,127.014079224649
218,꿈노리 예술교육연구소,도서관 연계 프로그램 이야기는 데굴데굴,,꿈다락예술문화학교,"음악,미술,문학,연극/뮤지컬",아동,,,"고양시 일산동구 공릉천로 68, 관리동2층 사리현작은도서관",경기,고양시 일산동구,37.6991849205409,126.846433925841
219,꿈노리 예술교육연구소,예술로 은빛로그 (라떼가 궁금해?),3층 장위실버복지센터,2024  <꿈다락 문화예술학교>,"음악,미술,미디어,융복합",노년,2024-08-05,2024-10-14,서울특별시 성북구 한천로 708,서울,성북구,37.62009081725,127.053512520284
220,미리봄 미디어교육협동조합,검은토끼의 특별한 외출,미리봄 미디어교육협동조합,,"영화,사진,미디어,융합","유아,아동",2023-05-10,2023-11-30,강원특별자치도 춘천시 동내면 금촌로 84-86,강원특별자치도,춘천시,37.8518507898122,127.783618505911
221,아난다 예술심리상담연구소,마음치유 음악이랑 우리랑(관계성향상 게슈탈트 음악치료),수내초등학교,"2025 문화로 치유 지원사업 '마음치유,봄처럼'","음악,융복합,기타",,2025-05-07,2025-11-06,경기도 성남시 분당구 백현로243번길 12,경기,성남시 분당구,37.3677656442667,127.124662625174
222,예술로(대구지부),청소년X예술가 희희Knock!Knock!,,꿈다락예술문화학교,연극/뮤지컬,청소년,,,"남구 중앙대로157, 4층 예술로(대명동)",대구,남구,35.8474566767218,128.590208577693
223,예술로(대구지부),생애전환 문화예술학교 파란만장 중년의 도전기!,,꿈다락예술문화학교,연극/뮤지컬,중장년,,,"달서구 문화회관길 160 달서아트센터 3, 5 강의실",대구,달서구,35.8434223614114,128.522826252636
224,감성놀이,2024 꿈다락 문화예술학교<AR 속 황혼배우의 연극>,남양주야학,2024 꿈다락 문화예술학교,"미술,연극/뮤지컬,미디어,융복합",노년,2024-07-25,2024-11-28,경기도 남양주시 금곡로 3,경기,남양주시,37.6332862641613,127.203571897317
225,극단진동,시간을 그리다 액티비티 드로잉 (Activity Drawing),,꿈다락예술문화학교,"미술,연극/뮤지컬","아동,청소년",,,강북구 삼양로 455 4층 마을극장 수유리,서울,강북구,37.643900176706,127.015785423103
226,극단해풍,연극으로 풀어보는 사회문제 이거 심상치가 않네,4층,2024꿈다락문화예술학교,연극/뮤지컬,,2024-06-28,2024-11-29,부산광역시 북구 만덕대로142번길 39,부산,북구,35.2113740462417,129.020416996995
227,극단해풍,내가 꾸었던 꿈- 나만의 연극만들기,4층,2024꿈다락문화예술학교,연극/뮤지컬,,2024-06-25,2024-11-26,부산광역시 북구 만덕대로142번길 39,부산,북구,35.2113740462417,129.020416996995
228,극단홍시,우리마을에 예술가가 산다. -Bravo My Life,고객쉼터,2024 생애주기별 문화예술교육 [꿈다락 문화예술학교],연극/뮤지컬,중장년,2024-07-11,2024-11-28,대전광역시 중구 대둔산로408번길 21-12,대전,중구,36.3060125543232,127.387968185388
229,극단홍시,우주여행- 내가 만나는 수많은 별 중에,대덕구청소년어울림센터,2024 생애주기별 문화예술교육 [꿈다락 문화예술학교],연극/뮤지컬,청소년,2024-07-01,2024-11-25,대전광역시 대덕구 쌍청당로 25,대전,대덕구,36.3643292095566,127.434183483524
230,깔깔미로,모랫길,동해시립북삼도서관,꿈다락문화예술학교,"디자인,공예,미술",,2025-09-06,2025-09-28,강원특별자치도 동해시 효자로 649,강원특별자치도,동해시,37.4927099135292,129.104418887485
231,깔깔미로,"내 꼬라지, 예술이 어때서",동해시립북삼도서관,꿈다락문화예술학교,"음악,공예,무용",중장년,2025-08-18,2025-10-27,강원특별자치도 동해시 효자로 649,강원특별자치도,동해시,37.4927099135292,129.104418887485
232,꽃과사람,내 마음 다시 꽃피우다,영천시 정신건강복지센터,"2025 문화로 치유 지원사업 「마음치유, 봄처럼」","미술,기타",노년,2025-05-13,2025-10-21,경상북도 영천시 금호읍 금호로 360,경북,영천시,35.9405552295189,128.899060468265
233,노니퍼니,아빠 엄마와 함께하는 정커션(JUNKUSSION=junk+percussion),,꿈다락예술문화학교,음악,"아동,중장년",,,"영등포구 도림로145길 19-4, 1층 노니퍼니",서울,영등포구,37.5147312962404,126.889548901418
234,노니퍼니,아빠와 함께하는 정커션(JUNKUSSION),,꿈다락예술문화학교,음악,"아동,중장년",,,"영등포구 도림로145길 19-4, 1층 노니퍼니",서울,영등포구,37.5147312962404,126.889548901418
235,노니퍼니,군악대 무대공연 프로젝트,"1군단 본부근무대, 56사단 본부근무대, 12사단 본부근무대",,음악,청년,2023-05-30,2023-11-30,서울특별시 영등포구 도림로145길 19-4 (보안상 주소등록 불가),서울,영등포구,37.5145815427984,126.889541769863
236,메이아이,자연예술가,"광주, 전남 지역 늘봄학교",2024 늘봄학교 문화예술교육 지원사업,"미술,융복합,기타",아동,2024-03-04,2024-07-26,전라남도 담양군 담양읍 반룡길 24-13,전남,담양군,35.2987199040421,126.980654095642
237,메이아이,지구별 놀이터,"광주, 전남 지역 늘봄학교",2024 늘봄학교 문화예술교육 지원사업,융복합,아동,2024-03-05,2024-07-26,전라남도 담양군 담양읍 반룡길 24-13,전남,담양군,35.2987199040421,126.980654095642
238,메이아이,연극놀이,전북 지역 늘봄학교,2024 늘봄학교 문화예술교육 지원사업,"미술,연극/뮤지컬,융복합,기타",아동,2024-03-19,2024-07-26,전라남도 담양군 담양읍 반룡길 24-13,전남,담양군,35.2987199040421,126.980654095642
239,메이아이,움직이는 애니메이션 만들기,"광주, 전남, 전북 지역 늘봄학교",2024 늘봄학교 문화예술교육 지원사업,"만화/애니메이션,사진,융복합,기타",아동,,,전라남도 담양군 담양읍 반룡길 24-13,전남,담양군,35.2987199040421,126.980654095642
240,메이아이,도토리 놀이터,"광주, 전남 지역 늘봄학교",2024 늘봄학교 문화예술교육 지원사업,"융복합,기타",아동,2024-03-05,2024-07-26,전라남도 담양군 담양읍 반룡길 24-13,전남,담양군,35.2987199040421,126.980654095642
241,메이아이,지구와로,광주 지역 늘봄학교,2024 늘봄학교 문화예술교육 지원사업,"미술,융복합,기타",아동,2024-03-04,2024-07-23,전라남도 담양군 담양읍 반룡길 24-13,전남,담양군,35.2987199040421,126.980654095642
242,메이아이,나도 어린이 만화가!,"광주, 전남, 전북 지역 늘봄학교",2024 늘봄학교 문화예술교육 지원사업,"만화/애니메이션,융복합",아동,2024-03-14,2024-07-18,전라남도 담양군 담양읍 반룡길 24-13,전남,담양군,35.2987199040421,126.980654095642
243,메이아이,"자연과 환경을 지키는 뚝딱, 미술 공작",전남 지역 늘봄학교,2024 늘봄학교 문화예술교육 지원사업,"미술,융복합,기타",아동,2024-03-11,2024-07-22,전라남도 담양군 담양읍 반룡길 24-13,전남,담양군,35.2987199040421,126.980654095642
244,메이아이,창의력 뿜뿜! 나는 요리사,"광주, 전남, 전북 지역 늘봄학교",2024 늘봄학교 문화예술교육 지원사업,"미술,융복합,기타",아동,2024-03-12,2024-07-22,전라남도 담양군 담양읍 반룡길 24-13,전남,담양군,35.2987199040421,126.980654095642
245,메이아이,신나는 SW·AI 코딩 로봇 교실,전남 지역 늘봄학교,2024 늘봄학교 문화예술교육 지원사업,"융복합,기타",아동,2024-03-19,2024-07-16,전라남도 담양군 담양읍 반룡길 24-13,전남,담양군,35.2987199040421,126.980654095642
246,메이아이,두두두,광주 지역 늘봄학교,2024 늘봄학교 문화예술교육 지원사업,"디자인,공예,미술,융복합",아동,2024-03-07,2024-07-25,전라남도 담양군 담양읍 반룡길 24-13,전남,담양군,35.2987199040421,126.980654095642
247,메이아이,놀이와 발레가 만나면,"광주, 전남, 전북 지역 늘봄학교",2024 늘봄학교 문화예술교육 지원사업,"무용,융복합,기타",아동,2024-03-12,2024-07-22,전라남도 담양군 담양읍 반룡길 24-13,전남,담양군,35.2987199040421,126.980654095642
248,메이아이,너랑 나랑 만드는 놀이세상,"광주, 전남, 전북 지역 늘봄학교",2024 늘봄학교 문화예술교육 지원사업,"공예,융복합,기타",아동,2024-03-12,2024-07-25,전라남도 담양군 담양읍 반룡길 24-13,전남,담양군,35.2987199040421,126.980654095642
249,메이아이,숟가락과 몸으로 표현하는 예술나라,"광주, 전남, 전북 지역 늘봄학교",2024 늘봄학교 문화예술교육 지원사업,"음악,무용,융복합",아동,,,전라남도 담양군 담양읍 반룡길 24-13,전남,담양군,35.2987199040421,126.980654095642
250,메이아이,연극동화,전북 지역 늘봄학교,2024 늘봄학교 문화예술교육 지원사업,"음악,미술,연극/뮤지컬,융복합,기타",아동,,,전라남도 담양군 담양읍 반룡길 24-13,전남,담양군,35.2987199040421,126.980654095642
251,메이아이,연극음악,전북 지역 늘봄학교,2024 늘봄학교 문화예술교육 지원사업,"음악,미술,연극/뮤지컬,융복합,기타",아동,,,전라남도 담양군 담양읍 반룡길 24-13,전남,담양군,35.2987199040421,126.980654095642
252,메이아이,놀이 더하기 놀이(연극과 전통놀이의 콜라보),"광주, 전남, 전북 지역 늘봄학교",2024 늘봄학교 문화예술교육 지원사업,"연극/뮤지컬,융복합,기타",아동,2024-03-14,2024-07-24,전라남도 담양군 담양읍 반룡길 24-13,전남,담양군,35.2987199040421,126.980654095642
253,모모살롱,별난 예술방,남양주보건소 2층,"2025 문화로 치유 지원사업  「마음치유, 봄처럼」","공예,미술,문학,연극/뮤지컬",노년,2025-05-16,2025-10-24,경기도 남양주시 경춘로 522,경기,남양주시,37.6102430253217,127.171961223238
254,모모살롱,예술로 봄봄봄,1층,"2025 문화로 치유 지원사업  「마음치유, 봄처럼」","미술,연극/뮤지컬",중장년,2025-05-13,2025-11-04,인천광역시 강화군 강화읍 충렬사로 26-1,인천,강화군,37.7372942002653,126.484858623273
255,모모살롱,별다방 이야기,하남미사보건센터 2층,"2025 문화로 치유 지원사업  「마음치유, 봄처럼」","미술,연극/뮤지컬",노년,2025-05-20,2025-10-28,경기도 하남시 미사강변대로 200,경기,하남시,37.5676390848,127.185540974827
256,모모살롱,별빛다방,5층 성북구치매안심센터,"2024 문화예술치유 프로그램 지원사업 「마음치유, 봄","연극/뮤지컬,무용",노년,2024-05-13,2024-10-07,서울특별시 성북구 화랑로 63,서울,성북구,37.6027616666352,127.039514009476
257,모모살롱,예술놀이터,1층 강화군정신건강복지센터,"2024 문화예술치 프로그램 지원사업 「마음치유, 봄","미술,문학,연극/뮤지컬","중장년,노년",2024-05-07,2024-10-08,인천광역시 강화군 강화읍 충렬사로 26-1,인천,강화군,37.7372942002653,126.484858623273
258,모모살롱,예술로 하모니,성북구보건소 5층 치매안심센터,"2025 문화로 치유 지원사업  「마음치유, 봄처럼」","미술,문학,연극/뮤지컬,무용",노년,2025-05-23,2025-10-31,서울특별시 성북구 화랑로 63,서울,성북구,37.6027616666352,127.039514009476
259,모모살롱,별별놀이터,미사보건센터,"2024 문화예술치유 프로그램 지원사업 「마음치유, 봄","미술,연극/뮤지컬",노년,2024-05-08,2024-10-02,경기도 하남시 미사강변대로 200,경기,하남시,37.5676390848,127.185540974827
260,모모살롱,예술路 꿈꾸다,하남미사보건센터 2층,"2024 문화예술치 프로그램 지원사업 「마음치유, 봄","음악,미술,문학,연극/뮤지컬","중장년,노년",2024-05-09,2024-10-31,경기도 하남시 미사강변대로 200,경기,하남시,37.5676390848,127.185540974827
261,모모살롱,민들레 놀이터,복지동 2층 치매안심센터,"2025 문화로 치유 지원사업  「마음치유, 봄처럼」","음악,문학,연극/뮤지컬",노년,2025-05-22,2025-10-23,경기도 남양주시 진접읍 금강로 1509-26,경기,남양주시,37.726328364043,127.189862958446
262,모모살롱,별빛 무지개,남양주시정신건강복지센터,"2024 문화예술치 프로그램 지원사업 「마음치유, 봄","공예,미술,문학,연극/뮤지컬",청년,2024-05-10,2024-09-20,경기도 남양주시 경춘로 522,경기,남양주시,37.6102430253217,127.171961223238
263,모모살롱,예술花방,1층 남양주시치매안심센터,"2024 문화예술치유 프로그램 지원사업 「마음치유, 봄","미술,연극/뮤지컬",노년,2024-05-10,2024-10-04,경기도 남양주시 와부읍 덕소로71번길 5,경기,남양주시,37.5879483493095,127.211129587976
264,모모살롱,별난 예술방,하남미사보건센터 4층,"2025 문화로 치유 지원사업  「마음치유, 봄처럼」","미술,문학,연극/뮤지컬",노년,2025-05-14,2025-10-15,경기도 하남시 미사강변대로 200,경기,하남시,37.5676390848,127.185540974827
265,문예두럭,환상의 상상놀이여행,황간청소년문화의집,2024 충북 생애주기형 문화예술교육지원사업,"공예,미술,기타",아동,2024-04-27,2024-11-30,충청북도 영동군 황간면 황간동로 87,충북,영동군,36.2324505207693,127.908660649668
266,문화밀당,3D입체퍼즐 풍남문 만들기,"1층, 문화밀당",문화밀당,"디자인,공예,미술,전통,융복합,기타","아동,청소년,청년,중장년,노년",2024-04-17,2024-12-31,전북특별자치도 전주시 완산구 거마산로 7,전북특별자치도,전주시 완산구,35.7969790395481,127.122198492067
267,문화통장,"지금 부르는 이 노래, 내 이야기입니다![1기수]","2층, LH자은3주공 작은도서관",2025 꿈다락 문화예술학교,음악,노년,2025-06-23,2025-09-01,경상남도 창원시 진해구 진해대로975번길 23,경남,창원시 진해구,35.1440333583593,128.70959987084
268,문화통장,"새로고침, 당신의 추억을 고쳐드립니다!(1기수)","2층, 하늘채작은도서관",2025 꿈다락 문화예술학교,공예,노년,2025-06-27,2025-09-05,경상남도 창원시 마산회원구 내서읍 호원로 359,경남,창원시 마산회원구,35.26531922377,128.524789896796
269,물드리네,<감나무 이야기>,물드리네,20+문화예술교육,"디자인,공예,전통,기타",중장년,2025-04-23,2025-06-25,제주특별자치도 제주시 한경면 낙산로 4-28,제주특별자치도,제주시,33.3225241920971,126.22690970261
270,바리나모,드로잉바디 2기수,스튜디오 무밭,20+ 문화예술교육,"무용,융복합",청년,2025-06-15,2025-08-31,제주특별자치도 서귀포시 성산읍 삼달신풍로 127-37,제주특별자치도,서귀포시,33.3736235911605,126.839343122132
271,바리나모,드로잉바디 1기수,스튜디오 무밭,20+ 문화예술교육,"무용,융복합",청년,2025-03-23,2025-06-08,제주특별자치도 서귀포시 성산읍 삼달신풍로 127-37,제주특별자치도,서귀포시,33.3736235911605,126.839343122132
272,부평시인,우리도만날수있어!_문학소녀문학소년,서구드림아카데미,꿈다락,"문학,기타",,2024-06-10,2024-10-31,인천광역시 서구 새오개로54번길 15-1,인천,서구,37.5151682773681,126.667148163257
273,산체로움,인생N회차-크레이터의 삶,(주)KM 별관1층,2025 생애주기별 문화예술교육 지원사업 <꿈다락 문화,"공예,전통","청년,중장년",2025-07-06,2025-11-30,경상북도 영천시 언하공단2길 35,경북,영천시,35.9898934276892,128.958352579138
274,산체로움,‘뚝딱이’는 어른이들,(주) KM 별관 1층,2025 생애주기별 문화예술교육 지원사업 <꿈다락 문화,"음악,공예,융복합","청년,중장년",2025-06-27,2025-11-21,경상북도 영천시 언하공단2길 35,경북,영천시,35.9898934276892,128.958352579138
275,산체로움,나무 도깨비와 함께 하는 놀이가(歌) 노래다(多),2층 (사)한국판소리보존회 달성지부,2025 생애주기별 문화예술교육 지원사업 <꿈다락 문화,"국악,공예",아동,2025-07-06,2025-11-16,대구광역시 달성군 현풍읍 테크노공원로 31,대구,달성군,35.6918452088751,128.456217300536
276,아키씨네,기타포유 (Guitar for You),,,음악,청년,2022-09-01,2022-09-30,서울특별시 성북구 솔샘로5길 43-5,서울,성북구,37.610129420797,127.002981128817
277,아트로운,우리동네 상상극장,광남생활문화센터,꿈다락 문화예술학교,연극/뮤지컬,"청년,중장년",2024-08-01,2024-11-09,경기도 광주시 고불로46번길 47,경기,광주시,37.3942649744347,127.229086398813
278,아트뭉치,내가 만드는 이야기보따리,,꿈다락예술문화학교,미술,"중장년,노년",,,김제시 하동 1길 79 특별활동실,전북특별자치도,김제시,35.814714947383,126.893189027864
279,아트뭉치,꿈꾸는 1 m2  하우스,,꿈다락예술문화학교,미술,"아동,청소년,중장년",,,김제시 백산면 부동1길 96-80 토림 조물땅,전북특별자치도,김제시,35.8370011939506,126.925715840836
280,어글리밤,힙합문화예술교육 어글리팜 : 인디펜던트,와이홀(Y-HALL) / 어글리 스튜디오(UGLYBAAM STUDIO),,음악,청소년,2023-04-18,2023-11-28,충청북도 청주시 상당구 상당로59번길 51 B1.,충북,청주시 상당구,36.6334969970869,127.487687596507
281,어글리밤,힙합문화예술교육 어글리팜 : Slack Off,청년뜨락 5959 지하 1층,생애주기문화예술교육,음악,청소년,2025-04-30,2025-11-08,충청북도 청주시 상당구 상당로59번길 59,충북,청주시 상당구,36.6335138022922,127.48730240751
282,음악공장,메타버스~~~~~예술자랑!!!,,꿈다락예술문화학교,융복합,노년,,,원주시 한지공원길 151(무실동)) 원주한지테마파크 2층 회의실,강원특별자치도,원주시,37.3343755264909,127.935395728281
283,음악공장,메타ART! 나도 예술다빈치~,,꿈다락예술문화학교,융복합,중장년,,,"원주시 원일로 139, 4층 원주영상미디어센터",강원특별자치도,원주시,37.3515496042529,127.946802942893
284,투라이트,나의 독립일지 2기,동구인문학당,생애전환문화예술교육,"문학,융복합",청년,2025-08-02,2025-10-25,광주광역시 동구 동계천로 168-5,광주,동구,35.148749548552,126.927679685572
285,투라이트,나의 독립일지 1기,동구청년센터 아지트,생애전환문화예술교육,"문학,융복합",청년,2025-07-03,2025-09-18,광주광역시 동구 중앙로246번길 7-9,광주,동구,35.153205447352,126.92079552239
286,문화공감 창,예술쉼표 포켓시네마-자화話자찬,,꿈다락예술문화학교,미디어,"청년,중장년",,,곡성군 곡성읍 읍내18길 6 1층 곡성 행복전남 문화지소,전남,곡성군,35.2824626593917,127.298563999078
287,상상창고 숨,움직이는 예술정거장마을예술학당,,꿈다락예술문화학교,미술,노년,,,제주시 해안마을길 75 상상창고 숨,제주특별자치도,제주시,33.456602443067,126.455010264592
288,상상창고 숨,꼬마작곡가 탐나는 음악가,,꿈다락예술문화학교,음악,"아동,청소년",,,제주시 연신로 156 아트락소극장,제주특별자치도,제주시,33.4887702054627,126.553008346642
289,상상창고 숨,예술로 레벨업 나의 일상 다큐멘터리,,꿈다락예술문화학교,사진,청년,,,제주시 해안마을길 75 상상창고 숨,제주특별자치도,제주시,33.456602443067,126.455010264592
290,상상창고 숨,생애전환 문화예술학교 마음의 소리,,꿈다락예술문화학교,기타,중장년,,,제주시 해안마을길 75 상상창고 숨,제주특별자치도,제주시,33.456602443067,126.455010264592
291,아트그릿 랩,예술로 프렌즈_놀이터 예술탐험대,"앵무스튜디오(실내) , 샛별놀이터, 안말어린이공원,성내하니공원,선린어린이공원",꿈다락 문화예술학교,"음악,디자인,사진,미술,문학,미디어,융복합",아동,2024-08-31,2024-11-09,서울특별시 강동구 성안로 34,서울,강동구,37.5266882749016,127.130297556728
292,움직이는 세상,32픽셀의 지구,선유도 공간 스페이스 1층,2025 꿈다락문화예술학교,"음악,연극/뮤지컬,미디어,융복합",아동,2025-08-02,2025-11-28,서울특별시 영등포구 양평로20길 16-1,서울,영등포구,37.5384741495059,126.896327754548
293,움직이는 세상,"멀티버스, 나의 또다른 이야기",교육실 1A,2025 꿈다락문화예술학교,"음악,연극/뮤지컬,미디어,융복합",중장년,2025-08-21,2025-10-29,서울특별시 은평구 통일로62길 7,서울,은평구,37.6072253744222,126.934431196604
294,주식회사 잇다,예술로어울림 1969예술공장,3층,2024예술로어울림,"음악,영화,미술,무용,융복합","아동,청소년,청년,중장년,노년",2024-08-05,2024-11-23,대전광역시 대덕구 대화서로 10,대전,대덕구,36.3689876035477,127.401036792846
295,책만드는 여자,보물찾으러 왔습니다~ 중앙시장님!,계룡문고,2024 생애주기별 문화예술교육,"디자인,공예,미술,문학,무용",중장년,2024-04-25,2024-11-07,대전광역시 중구 중앙로 119,대전,중구,36.3279462175106,127.422870350103
296,타악그룹 얼쑤,유소년감성난타'꿈트리(TREE)',임방울 전수관,예술시민문화예술교육,"국악,음악,융복합",아동,2025-05-12,2025-11-01,광주광역시 광산구 광산로68번길 13,광주,광산구,35.140501036363,126.799231591456
297,협동조합 미래,씨앗티즌 프로젝트_허튼예술,,꿈다락예술문화학교,"미술,연극/뮤지컬,미디어",청년,,,성남시 수정구 수정로 386. 성남꿈꾸는예술터 2F 통합랩1,경기,성남시 수정구,37.4578053199943,127.152163310414
298,협동조합 어감,양동시장 AI예술놀이터_ 어린이 미디어 탐방대,2층 양동전통시장 역사전시관 교육장,2025 꿈다락문화예술학교,"사진,미디어",아동,2025-06-28,2025-09-27,광주광역시 서구 천변좌로 238,광주,서구,35.1539074722757,126.902557729596
299,협동조합 어감,양동시장 AI예술메이커_ 나도 천아트 작가,2층 양동전통시장 역사전시관 교육장,2025 꿈다락문화예술학교,"공예,미디어",중장년,2025-07-01,2025-10-21,광주광역시 서구 천변좌로 238,광주,서구,35.1539074722757,126.902557729596
300,아트센터 나비 미술관,<미래감각: 감각의 재구성>,더 숲 노원 아트시네마,2024 꿈다락 문화예술학교,"미술,미디어,융복합,기타",청소년,2024-09-02,2024-11-30,서울특별시 노원구 노해로 480,서울,노원구,37.6541794204255,127.061435135164
301,아트센터 나비 미술관,<미래감각: 링크 투 네이처>,1층 A동 7-1호,2024 꿈다락 문화예술학교,"미술,미디어,융복합,기타",아동,2024-08-09,2024-10-19,서울특별시 성동구 왕십리로 63,서울,성동구,37.5436228045917,127.043585906393
302,창작집단 쟁이 사회적협동조합,순환랩 남김없이 외전 “남겨진 것”,,꿈다락예술문화학교,연극/뮤지컬,"청소년,청년,중장년,노년",,,동구 대전로448번길 70 지하 작은극장 다함,대전,동구,36.30751039074,127.455539704266
303,창작집단 쟁이 사회적협동조합,연극 꿈나무의 가오동이야기,,꿈다락예술문화학교,연극/뮤지컬,"아동,청소년",,,동구 대전로448번길 70 지하 작은극장 다함,대전,동구,36.30751039074,127.455539704266
304,호랑이는 고흥!,행복을 담는 건축학교 2023 고흥(어린이/청소년) 건축 워크숍-Re:creative city,,꿈다락예술문화학교,"디자인,건축","아동,청소년",,,"고흥군 고흥읍 남계리 458-7, 고흥 꿈꾸는 예술터 : 대환영",전남,고흥군,34.6103166582972,127.286718326722
305,호랑이는 고흥!,비주류 씨앗 학교,,꿈다락예술문화학교,"디자인,문학","아동,청소년",,,고흥군 고흥읍 봉동주공길 3 카페보아즈 외 고흥군 전체,전남,고흥군,34.6076573616932,127.288234225355
306,사단법인 아리수,함께 만드는 국악 음악극 “아리의 모험”,(별양동) 3층 연극놀이터 해마루,2024 생애주기별 문화예술교육 지원사업 <꿈다락 문화,"국악,연극/뮤지컬",아동,2024-07-01,2024-11-25,경기도 과천시 별양로 58-1,경기,과천시,37.4239815250069,126.993914817316
307,사단법인 아리수,춤추는 무지개,과천시민회관 연습실,2025 생애주기별 문화예술교육 지원사업 <꿈다락 문화,무용,"청년,중장년",2025-06-18,2025-10-29,경기도 과천시 통영로 5,경기,과천시,37.4281927195572,126.989152418475
308,사단법인 아리수,함께 만드는 국악 음악극 “아리의 모험”,과천문화원,2025 생애주기별 문화예술교육 지원사업 <꿈다락 문화,"국악,음악,연극/뮤지컬",아동,2025-06-30,2025-11-24,경기도 과천시 문원로 40-1,경기,과천시,37.4283435834001,127.001794376076
309,사단법인 아리수,전통을 잇는어린 예술가들?수궁가 FLEX연극놀이터해마루,과천시민회관 연습실,2025 생애주기별 문화예술교육 지원사업 <꿈다락 문화,"국악,연극/뮤지컬",아동,2025-06-12,2025-11-20,경기도 과천시 통영로 5,경기,과천시,37.4281927195572,126.989152418475
310,예술하는 아이다,"예술하는 청소년 : 빛과 그림자, 연극",,꿈다락예술문화학교,연극/뮤지컬,청소년,,,성북구 화랑로32길 100-1 돌곶이생활예술문화센터 움직임 연습실,서울,성북구,37.6062702212193,127.058753128292
311,예술하는 아이다,오필리아의 빛극장으로 초대합니다,성북구마을사회적경제센터,,연극,청소년,2023-07-01,2023-11-25,서울특별시 성북구 종암로25길 29 3층,서울,성북구,37.6000894093972,127.031453691426
312,예술하는 아이다,연극 만들기 빵 만들기,성북구마을사회적경제센터,,연극,청소년,2023-06-07,2023-11-15,서울특별시 성북구 종암로25길 29 3층,서울,성북구,37.6000894093972,127.031453691426
313,예술하는 아이다,연극놀이: 다 같이 상상 마을로!,,꿈다락예술문화학교,연극/뮤지컬,아동,,,"성북구 화랑로32길 100-1, 돌곶이생활예술문화센터 움직임 연습실",서울,성북구,37.6062702212193,127.058753128292
314,유한회사 아미고,손뜨개메이커,인천여자단기청소년쉼터하모니,,공예,"아동,청소년",2023-06-13,2023-11-28,인천광역시 남동구 인주대로 801 대영빌딩 5층,인천,남동구,37.4489806064423,126.726339276215
315,유한회사 아미고,캘리 힐 미,서울남부구치소,,미술,"청년,중장년,노년",2023-05-31,2023-09-06,서울특별시 구로구 금오로 865,,,37.4770414192439,126.837666620161
316,주식회사 물나무,생애전환 문화예술학교 오색필터 five sensitive,,꿈다락예술문화학교,사진,중장년,,,과천시 통영로 5 (중앙동) 과천시민회관 2층,경기,과천시,37.4281927195572,126.989152418475
317,주식회사 바인딩,주말예술캠퍼스 미술관 속 숨은 세상,,꿈다락예술문화학교,"미술,융복합","아동,청소년",,,"창원시 마산합포구 문신길 147, 창원시립마산문신미술관 교육실",경남,창원시 마산합포구,35.2067524865318,128.569265961364
318,주식회사 바인딩,"움직이는 우리, 몸짓의 조각",창원시립마산문신미술관,2025 생애주기별 문화예술교육 <꿈다락 문화예술학교>,"미술,연극/뮤지컬,융복합",아동,2025-07-26,2025-08-30,경상남도 창원시 마산합포구 문신길 147,경남,창원시 마산합포구,35.2067524865318,128.569265961364
319,주식회사 바인딩,"들리는 조각, 보이는 소리",창원시립마산문신미술관,2025 생애주기별 문화예술교육 <꿈다락 문화예술학교>,"음악,미술,미디어,융복합",아동,2025-07-26,2025-08-30,경상남도 창원시 마산합포구 문신길 147,경남,창원시 마산합포구,35.2067524865318,128.569265961364
320,상상이상 연구소 주식회사,드림아트랩 4.0 동해 고래를 찾아서,,꿈다락예술문화학교,"미술,융복합",아동,,,속초시 중앙로 33 속초 아동청소년 친화공간 “꿈이랑”,강원특별자치도,속초시,38.1997726786085,128.579769541441
321,상상이상 연구소 주식회사,예술쉼표 나 있스 속초,,꿈다락예술문화학교,"사진,미술","청년,중장년",,,"속초시 번영로 43번길 22, 214호 상상이상연구소",강원특별자치도,속초시,38.2055952358842,128.581231898138
322,상상이상 연구소 주식회사,예술쉼표 마음으로 찍는 사진 노트,,꿈다락예술문화학교,"사진,미술","청년,중장년",,,속초시 중앙로46번길 45 칠성조선소,강원특별자치도,속초시,38.1982449592871,128.583368118177
323,경상남도 진주시 진주성관리사업소(진주청동기문화박물관),국·공립 문화예술기관 연계 프로그램 대평마을의 평화를 위하여,,꿈다락예술문화학교,"음악,미술,무용",아동,,,진주시 대평면 호반로 1353 진주청동기문화박물관,경남,진주시,35.2243843708131,127.961966589126
324,미술공감 펀펀아트,마을가족 예술로 오손도손,꿈그린작은도서관,2025 생애주기별 문화예술교육 지원사업 「꿈다락 문화,"공예,미술,문학",,2025-06-21,2025-11-22,대전광역시 대덕구 동심1길 84,대전,대덕구,36.3637039056954,127.413864038264
325,미술공감 펀펀아트,꿈고개 아리랑프로젝트,꿈그린작은도서관,2025 생애주기별 문화예술교육 지원사업 「꿈다락 문화,"국악,미술,미디어","아동,청소년",2025-08-12,2025-10-18,대전광역시 대덕구 동심1길 84,대전,대덕구,36.3637039056954,127.413864038264
326,스튜디오 모든사이,어린이는 무엇을 믿는가 위(Whee) 프로젝트,,꿈다락예술문화학교,미술,아동,,,"성남시 수정구 수정로228번길 12, 신흥공공예술창작소 2층",경기,성남시 수정구,37.444691083622,127.145432540876
327,스튜디오 모든사이,어린이는 무엇을 믿는가 우리 동네 사건발생지도,,꿈다락예술문화학교,미술,아동,,,성남시 수정구 수정로228번길 12 신흥공공예술창작소 2층,경기,성남시 수정구,37.444691083622,127.145432540876
328,유한회사 이랑고랑,"당신의 삶을 바라보며, 나의 삶을 돌아보며.",,꿈다락예술문화학교,"미술,연극/뮤지컬","중장년,노년",,,"김제시 광활면 심창로 208, 용평용신마을",전북특별자치도,김제시,35.8423529118626,126.73271070501
329,주식회사 라이블리,별별We로,,,음악,"청년,중장년",2023-05-01,2023-11-30,울산광역시 울주군 청량읍 청량천변로 103-9,,,,
330,주식회사 라이블리,음중진담 밴드,부산 이동·플랫폼 노동자 지원센터 ‘도담도담’,,음악,"청년,중장년",2023-05-01,2023-11-30,부산광역시 부산진구 서면로 38,부산,부산진구,35.1540967992627,129.058053661794
331,주식회사 라이블리,동동주(動同作) 한잔~,도담도담,,음악,"청년,중장년",2022-05-01,2022-09-30,부산광역시 부산진구 서면로 38,부산,부산진구,35.1540967992627,129.058053661794
332,주식회사 엠공사이,042 LAB :나예술연구소,1층 엠공사이 교육장,2024 꿈다락 문화예술학교,"공예,미술",청년,2024-06-25,2024-11-26,대전광역시 서구 계룡로325번길 21,대전,서구,36.3554194599769,127.365201001352
333,주식회사 표현하다,창작 오디오 드라마 허브,"B1, 표현하다 스튜디오",2024 꿈다락 문화예술학교,"연극/뮤지컬,미디어","청년,중장년",2024-07-23,2024-08-22,서울특별시 동작구 사당로17길 83,서울,동작구,37.4864364917903,126.971995253767
334,주식회사 표현하다,청년 창작 라이브 오디오 드라마 소리로 잇다,,꿈다락예술문화학교,"연극/뮤지컬,융복합",청년,,,"동작구 사당로17길 83, B1 표현하다 스튜디오",서울,동작구,37.4864364917903,126.971995253767
335,주식회사 표현하다,낭만 시니어를 위한 오디오 음악 드라마,인천북부교육문화센터,2024 인천 꿈다락 문화예술학교,"음악,연극/뮤지컬,미디어","중장년,노년",2024-07-01,2024-08-09,인천광역시 부평구 원적로 391,인천,부평구,37.5045059904215,126.709921244403
336,주식회사 표현하다,청년 창작 라이브 오디오 드라마 소리로 잇다,,꿈다락예술문화학교,"연극/뮤지컬,융복합",청년,,,"동작구 사당로17길 83, B1 표현하다 스튜디오",서울,동작구,37.4864364917903,126.971995253767
337,주식회사 표현하다,이야기 나라 오디오 세상,,꿈다락예술문화학교,"연극/뮤지컬,융복합",아동,,,동작구 사당로20나길 25 1층 사당융합형 우리동네키움센터 동작13호점,서울,동작구,37.481831224465,126.974227690422
338,주식회사 표현하다,상상 나라가 오디오,사당융합형 우리동네키움센터 동작13호점,2024 꿈다락 문화예술학교,"연극/뮤지컬,미디어",아동,2024-07-24,2024-08-23,서울특별시 동작구 사당로20나길 25,서울,동작구,37.481831224465,126.974227690422
339,커뮤니티 아트센터 숲,소소한 마실 ?하단포구,,꿈다락예술문화학교,"미술,문학",중장년,,,사하구 하신중앙로 308 하단1동 행정복지센터,부산,사하구,35.1039644999339,128.96424250535
340,커뮤니티 아트센터 숲,불(火)협화음,,꿈다락예술문화학교,음악,아동,,,낙동대로 520번길 14. 청구아파트 상가 지하 반디-무지크,부산,사하구,35.1109308014316,128.966995833185
341,커뮤니티 아트센터 숲,우리가 글을 몰랐지 인생을 몰랐나!,,꿈다락예술문화학교,"미술,문학",노년,,,사하구 낙동대로 380  당리동행정복지센터,부산,사하구,35.1029348005095,128.976680494596
342,커뮤니티 아트센터 숲,별별We로,,꿈다락예술문화학교,음악,청년,,,중구 백산길 13 한성1918 생활문화센터 교육관,,,,
343,주식회사 갬블러크루,K-POP 댄스톡톡!(Dance Tok Tok),"평안빌딩 B1, 무대위사람들 복합문화공간",2025 꿈다락 문화예술학교,"무용,융복합",청소년,2025-07-05,2025-09-14,서울특별시 중구 동호로24길 19-17,서울,중구,37.5598678178216,127.004850217635
344,주식회사 갬블러크루,"청춘 스트릿, 락킹한 순간","평안빌딩 B1, 무대위사람들 복합문화공간",2025 꿈다락 문화예술학교,"무용,융복합",청년,2025-06-30,2025-09-14,서울특별시 중구 동호로24길 19-17,서울,중구,37.5598678178216,127.004850217635
345,주식회사 갬블러크루,2023 락킹으로 만나는 새로운 세상,미평여자학교,,"무용,기타",청소년,2023-05-26,2023-11-30,충청북도 청주시 서원구 남지로41번길 23 미평여자학교,충북,청주시 서원구,36.6041363555245,127.464382925787
346,주식회사 나인어클락,꼬마작가님의 그림책,행복나무공방,꿈다락문화예술학교 통합자율형,"미술,융복합","유아,아동",2025-06-07,2025-11-30,충청북도 청주시 청원구 외평로 17,충북,청주시 청원구,36.6967714940148,127.482797417829
347,주식회사 나인어클락,어린이가 바라보는 세상,행복나무공방,꿈다락문화예술학교 통합자율형,"사진,융복합","유아,아동",2025-06-21,2025-11-30,충청북도 청주시 청원구 외평로 17,충북,청주시 청원구,36.6967714940148,127.482797417829
348,주식회사 아트앤허그,어린이는 무엇을 믿는가 꾸러기 예술가 - 내가 꿈꾸는 별!,,꿈다락예술문화학교,미술,아동,,,칠곡군 기산면 강정길 47-10 안다미로 귀때 박물관,경북,칠곡군,35.98393600621,128.384231421257
349,주식회사 아트앤허그,어린이는 무엇을 믿는가 꾸러기 예술가 - 내가 꿈꾸는 별!,,꿈다락예술문화학교,미술,아동,,,달성군 현풍읍 현풍동로 68-1 문화공간 푸른초장,대구,달성군,35.6963817612593,128.450980921119
350,주식회사 애이비씨랩,드림아트랩 4.0 인공지능으로 춤추는 히치하이커,,꿈다락예술문화학교,무용,청년,,,"성동구 뚝섬로1나길 5, 헤이그라운드 성수시작점",서울,성동구,37.5444719061481,127.047778632224
351,주식회사 애이비씨랩,탈춤 with AI,,꿈다락예술문화학교,무용,"아동,중장년",,,"성동구 뚝섬로1나길 5, 헤이그라운드 성수시작점",서울,성동구,37.5444719061481,127.047778632224
352,협동조합 성안사람들,"마당극 퇴,퇴,퇴생원 용궁탈출기(전 생애)",,꿈다락예술문화학교,국악,"아동,청소년,청년,중장년,노년",,,나주시 나주천1길 나주나빌레라문화센터,,,35.0304661970598,126.716375472495
353,협동조합 성안사람들,"퓨전마당극 “나주야, 업고 놀자!”(아동청소년)",,꿈다락예술문화학교,국악,"아동,청소년",,,나주시 나주천1길 나주나빌레라문화센터,,,35.0304661970598,126.716375472495
354,아트센터 화이트블럭 천안분점,어린이는 무엇을 믿는가 거울 왕국,,꿈다락예술문화학교,미술,아동,,,천안시 동남구 광풍로 315 화이트블럭 천안창작촌,충남,천안시 동남구,36.6774990525777,127.057220360475
355,재단법인 관악문화재단,2025 꿈의 극단 '관악',관악문화재단,2025 꿈의 극단 운영사업,연극/뮤지컬,청소년,2025-05-23,2025-12-19,서울특별시 관악구 신림로3길 35,서울,관악구,37.4675533645757,126.944962394132
356,재단법인 관악문화재단,국·공립 문화예술기관 연계 프로그램  자연스러운 예술IN,,꿈다락예술문화학교,"미술,기타",아동,,,관악구 남부순환로 234길 73 싱글벙글교육센터,서울,관악구,37.4760962512417,126.956288055678
357,재단법인 관악문화재단,친환경 문화예술교육프로그램 자연스러운 예술IN,,꿈다락예술문화학교,"미술,기타",중장년,,,관악구 남부순환로 234길 73 싱글벙글교육센터,서울,관악구,37.4760962512417,126.956288055678
358,재단법인 광진문화재단,꿈의 무용단 - 광진,3층 창작공간,꿈의 무용단,무용,"아동,청소년",2025-05-10,2025-11-22,서울특별시 광진구 능동로 76,서울,광진구,37.5375706269359,127.070576040786
359,재단법인 광진문화재단,가가호호(家加好好),3층 창작공간,2025 생활밀착형 문화예술교육 지원사업‘,"음악,미술,연극/뮤지컬,무용,융복합","유아,아동",2025-05-24,2025-11-23,서울특별시 광진구 능동로 76,서울,광진구,37.5375706269359,127.070576040786
360,재단법인 광진문화재단,부부가 함께하는 무료 발레교육 <나루 쀼빌레라>,3층 창작공간,2025 서울 문화예술교육 지원사업 - 지역협력형,무용,중장년,2025-09-15,2025-11-22,서울특별시 광진구 능동로 76,서울,광진구,37.5375706269359,127.070576040786
361,재단법인 군포문화재단,2024 꿈의 오케스트라 군포,군포문화예술회관 오케스트라 연습실,꿈의 오케스트라 군포,음악,"아동,청소년",2024-02-19,2024-12-04,경기도 군포시 고산로 599,경기,군포시,37.365772339591,126.927482650651
362,재단법인 성북문화재단,스스로학교-무대 위 나로 서기,지하1층 천장산우화극장,생애주기별 문화예술교육 <꿈다락문화예술학교,연극/뮤지컬,"청년,중장년",2024-09-11,2024-11-16,서울특별시 성북구 화랑로18자길 13,서울,성북구,37.6049779283236,127.05059120982
363,재단법인 성북문화재단,2024 꿈의 오케스트라성북,성북구민회관,2024 꿈의 오케스트라'성북',음악,"아동,청소년",2024-03-09,2024-12-31,서울특별시 성북구 성북로4길 177,서울,성북구,37.5958756496148,127.008710342034
364,재단법인 순천문화재단,우리 가족 인스타툰,세대공감 비타민센터 생기발랄실,2025 생활밀착형 문화예술교육지원사업 '가가호호',만화/애니메이션,,2025-10-11,2025-11-01,전라남도 순천시 서문로 7-2,전남,순천시,34.9495562597736,127.482956767407
365,재단법인 순천문화재단,엄마지만 딸이야,순천대학교 국제문화컨벤션관 408호(순천시 가족센터),2025 생활밀착형 문화예술교육지원사업 '가가호호',음악,,2025-08-02,2025-08-30,전라남도 순천시 중앙로 255,전남,순천시,34.9667612819538,127.480923056778
366,재단법인 순천문화재단,"찰칵, 우리 가족 이야기",1층,2025 생활밀착형 문화예술교육지원사업 '가가호호',사진,,2025-09-13,2025-09-27,전라남도 순천시 삼산로 157,전남,순천시,34.9772852812467,127.498013185566
367,재단법인 순천문화재단,부부를 위한 그림책 원예,소규모공연장,2025 생활밀착형 문화예술교육지원사업 '가가호호',공예,"청년,중장년,노년,장애인",2025-10-17,2025-11-10,전라남도 순천시 중앙로 95,전남,순천시,34.9542462907326,127.483665795274
368,재단법인 순천문화재단,가족 미니 국악 뮤지컬,순천문화재단 다목적연습실,2025 생활밀착형 문화예술교육지원사업 '가가호호',"국악,연극/뮤지컬",,2025-10-25,2025-11-22,전라남도 순천시 중앙로 95,전남,순천시,34.9542462907326,127.483665795274
369,재단법인 순천문화재단,아빠도 놀 줄 안다,다목적연습실,2025 생활밀착형 문화예술교육지원사업 '가가호호',무용,,2025-08-02,2025-08-30,전라남도 순천시 중앙로 95,전남,순천시,34.9542462907326,127.483665795274
370,재단법인 순천문화재단,서로의 시간,소규모공연장,2025 생활밀착형 문화예술교육지원사업 '가가호호',연극/뮤지컬,,2025-06-07,2025-07-26,전라남도 순천시 중앙로 95,전남,순천시,34.9542462907326,127.483665795274
371,재단법인 양천문화재단,꿈다락 문화예술학교,양천문화회관 본관 1층,생애주기별 문화예술교육 지원사업,"미술,문학,미디어,기타","청년,중장년,노년",2025-07-05,2025-11-22,서울특별시 양천구 목동서로 367,서울,양천구,37.5165209333904,126.863340014538
372,재단법인 전주문화재단,2025 생활밀착형 문화예술교육 지원사업 '가가호호',팔복예술공장,2025 생활밀착형 문화예술교육 지원사업 '가가호호',"음악,디자인,공예,문학,무용,융복합",,2025-05-17,2025-10-04,전북특별자치도 전주시 덕진구 구렛들1길 46,전북특별자치도,전주시 덕진구,35.8613337830333,127.100948301234
373,재단법인 전주문화재단,꿈의 댄스팀 전주 - Think Like a Freak! 춤추는 괴짜 선생님,"전북대학교 예술대학 2호관 무용학과 4030호, 팔복예술공장 B동 2층 꿈터마루방",,무용,아동,2023-06-04,2023-11-05,전라북도 전주시 덕진구 백제대로 567 예술대학 2호관 무용학과 4030호,전북특별자치도,전주시 덕진구,35.8411382714422,127.131588969832
374,재단법인 전주문화재단,2025 꿈의 무용단 전주 프릭스!,팔복예술공장 B동 꿈터마루방,2025 꿈의 무용단 운영사업,무용,"아동,청소년",2025-04-27,2025-11-09,전북특별자치도 전주시 덕진구 구렛들1길 46,전북특별자치도,전주시 덕진구,35.8613337830333,127.100948301234
375,재단법인 전주문화재단,2024 꿈의 무용단 전주,예술대학 2호관 무용학과 4030호,2024 꿈의 무용단 운영사업,무용,아동,2024-06-02,2024-11-03,전북특별자치도 전주시 덕진구 백제대로 567,전북특별자치도,전주시 덕진구,35.8411382714422,127.131588969832
376,재단법인 전주문화재단,2025 꿈의 극단 전주,팔복예술공장 B동 꿈터마루방,꿈의 극단 운영사업 전주,연극/뮤지컬,"아동,청소년",2025-05-31,2025-11-29,전북특별자치도 전주시 덕진구 구렛들1길 46,전북특별자치도,전주시 덕진구,35.8613337830333,127.100948301234
377,재단법인 제천문화재단,"읽다보니, 연극이네?",하소생활문화센터 산책,2025 생애주기별 문화예술교육 꿈다락 문화예술학교,연극/뮤지컬,,2025-07-23,2025-11-08,충청북도 제천시 용두대로15길 18-13,충북,제천시,37.14029523253,128.199359819614
378,재단법인 제천문화재단,예술쉼표 하소로 레트로,,꿈다락예술문화학교,미술,청년,,,제천시 용두대로 15길 18-13 하소생활문화센터 산책 2층 예술산책,충북,제천시,37.14029523253,128.199359819614
379,재단법인 제천문화재단,2025 꿈의 오케스트라 '제천',제천예술의전당,꿈의 오케스트라 운영사업,음악,"아동,청소년",2025-05-01,2025-11-30,충청북도 제천시 동명로 77,충북,제천시,37.1356796919799,128.208323328128
380,재단법인 제천문화재단,HEY 보기 IN 제천,하소생활문화센터 산책,2025 생애주기별 문화예술교육 꿈다락 문화예술학교,"미술,융복합","청년,중장년",2025-07-24,2025-10-16,충청북도 제천시 용두대로15길 18-13,충북,제천시,37.14029523253,128.199359819614
381,재단법인 제천문화재단,2024 꿈의 무용단 운영사업 제천,제천시청소년센터,"2024 꿈의 무용단 운영사업 ""제천""",무용,"아동,청소년",2024-03-01,2024-12-31,충청북도 제천시 의병대로 198,충북,제천시,37.1328700729322,128.222007682743
382,재단법인 제천문화재단,아트 스트라이커,하소생활문화센터 산책,2024 꿈다락 문화예술학교,"연극/뮤지컬,융복합","청년,중장년",2024-08-20,2024-10-30,충청북도 제천시 용두대로15길 18-13,충북,제천시,37.14029523253,128.199359819614
383,재단법인 춘천문화재단,신나는 오케스트라,춘천문화예술회관,꿈의 오케스트라 '춘천',음악,"아동,청소년",2024-02-27,2024-11-09,강원특별자치도 춘천시 효자상길5번길 13,강원특별자치도,춘천시,37.8726170419717,127.729371287974
384,재단법인 춘천문화재단,2025 꿈의 극단 춘천,춘천 꿈꾸는예술터,꿈의극단 춘천,연극/뮤지컬,"유아,청소년",2025-05-28,2025-12-03,강원특별자치도 춘천시 춘천로145번길 18,강원특별자치도,춘천시,37.8765643125702,127.729076615493
385,제이크루 음악커뮤니티,"마음 나눔 예술터, 예술로 꿈틀꿈틀",wee클래스,"2025 마음치유, 봄처럼",음악,아동,2025-05-12,2025-07-15,경기도 시흥시 하중로209번길 10,경기,시흥시,37.3931304510942,126.80731328661
386,제이크루 음악커뮤니티,"마음 나눔 예술터, 예술로 살랑살랑",wee클래스,"2025 마음치유, 봄처럼","음악,미술",아동,2025-05-09,2025-11-14,경기도 시흥시 황고개로 567,경기,시흥시,37.3805442597852,126.788090644734
387,제이크루 음악커뮤니티,"마음 나눔 예술터, 예술로 살랑살랑",wee클래스,"2025 마음치유, 봄처럼","음악,미술",아동,2025-05-12,2025-11-10,경기도 시흥시 중심상가로 257,경기,시흥시,37.3409663970339,126.743221282806
388,제이크루 음악커뮤니티,"마음 나눔 예술터, 예술로 콩닥콩닥",wee클래스,"2025 마음치유, 봄처럼",음악,아동,2025-05-09,2025-11-14,경기도 시흥시 월곶해안로 69,경기,시흥시,37.3917668234052,126.737338766874
389,제이크루 음악커뮤니티,"마음 나눔 예술터, 예술로 콩닥콩닥",wee클래스,"2025 마음치유, 봄처럼",음악,아동,2025-05-15,2025-11-13,경기도 시흥시 배곧4로 44-5,경기,시흥시,37.375890735366,126.728677147021
390,제이크루 음악커뮤니티,모두작곡가(노년)-시니어 블루스,행복학습타운,생애주기별 문화예술교육 지원사업 <꿈다락 문화예술학교>,음악,노년,2024-07-22,2024-11-30,경기도 시흥시 소래산길 11,경기,시흥시,37.4485080932151,126.784694409833
391,주식회사 생각하는바다,게임속에서 만나는 우리학교,남항초등학교,2024 예술로어울림,융복합,아동,2024-09-24,2024-10-22,부산광역시 영도구 남항새싹길 55,부산,영도구,35.0832967756842,129.04344612896
392,주식회사 생각하는바다,춤추는 골목의 항해사,보물섬 영도,2024 예술로어울림,무용,아동,2024-09-21,2024-11-30,부산광역시 영도구 하나길 794,부산,영도구,35.0929995000376,129.051732688021
393,주식회사 생각하는바다,"길을 걷는 마음, 길을 내는 마을",보물섬 영도,2024 예술로어울림,"미술,문학",중장년,2024-07-07,2024-08-25,부산광역시 영도구 하나길 794,부산,영도구,35.0929995000376,129.051732688021
394,주식회사 생각하는바다,로블록스 영도에서 만나!,보물섬 영도,2024 예술로어울림,"디자인,융복합",아동,2024-09-22,2024-12-01,부산광역시 영도구 하나길 794,부산,영도구,35.0929995000376,129.051732688021
395,주식회사 생각하는바다,안전한 등굣길 만들기,보물섬 영도,2024 예술로어울림,미술,아동,2024-09-21,2024-12-07,부산광역시 영도구 하나길 794,부산,영도구,35.0929995000376,129.051732688021
396,주식회사 생각하는바다,영도 소리와 움직임,남항초등학교,2024 예술로어울림,무용,아동,2024-09-05,2024-11-07,부산광역시 영도구 남항새싹길 55,부산,영도구,35.0832967756842,129.04344612896
397,주식회사 생각하는바다,어린이 해양 도슨트단,보물섬 영도,2024 예술로어울림,"디자인,미술,기타",아동,2024-07-14,2024-08-11,부산광역시 영도구 하나길 794,부산,영도구,35.0929995000376,129.051732688021
398,주식회사 생각하는바다,소리수집가들,깡깡이 생활문화센터,2024 예술로어울림,"디자인,미디어,융복합",아동,2024-09-22,2024-12-01,부산광역시 영도구 대평로27번길 6,부산,영도구,35.0913290283892,129.03405994757
399,주식회사 생각하는바다,우리가 만드는 영도의 이야기들,남항초등학교,2024 예술로어울림,"만화/애니메이션,미디어",아동,2024-10-07,2024-10-17,부산광역시 영도구 남항새싹길 55,부산,영도구,35.0832967756842,129.04344612896
400,주식회사 생각하는바다,에너지 자립상상 미래영도,남항초등학교,2024 예술로어울림,"미술,융복합",아동,2024-09-13,2024-10-11,부산광역시 영도구 남항새싹길 55,부산,영도구,35.0832967756842,129.04344612896
401,주식회사 생각하는바다,우리가 만드는 영도의 인물들,남항초등학교,2024 예술로어울림,"만화/애니메이션,미디어",아동,2024-09-06,2024-09-27,부산광역시 영도구 남항새싹길 55,부산,영도구,35.0832967756842,129.04344612896
402,주식회사 생각하는바다,깡깡이예술마을이 궁금하세요?,깡깡이 생활문화센터,2024 예술로어울림,"디자인,미술,융복합",아동,2024-09-22,2024-12-01,부산광역시 영도구 대평로27번길 6,부산,영도구,35.0913290283892,129.03405994757
403,사단법인 창의예술연구회,고라당에 핀 할미들의 수다꽃,"204호, 205호",2024 생애주기별 문화예술교육 지원사업 <꿈다락 문화,"공예,미술,기타",노년,2024-08-05,2024-11-15,전북특별자치도 전주시 덕진구 사평로 24,전북특별자치도,전주시 덕진구,35.8398471397338,127.120134937418
404,위앤아트 사회적협동조합,뿅뿅 지구오락실 - 김포편 2,풍무 청소년 문화의 집 (풍무청소년센터),2025 생애주기별 문화예술 교육 - 꿈다락 문화 예술,"디자인,공예,미술,문학,연극/뮤지컬,미디어",,2025-07-02,2025-09-24,경기도 김포시 풍무로146번길 86,경기,김포시,37.6075329352977,126.728562527663
405,위앤아트 사회적협동조합,김포마불 세계여행,김포 제2종합사회복지관,2025 생애주기별 문화예술 교육 - 꿈다락 문화 예술,"디자인,공예,연극/뮤지컬,미디어","아동,청소년",2025-07-05,2025-11-29,경기도 김포시 통진읍 마송1로 150,경기,김포시,37.6879092296021,126.592781106665
406,위앤아트 사회적협동조합,뿅뿅 지구오락실 - 김포편 1,김포 제2종합사회복지관,2025 생애주기별 문화예술 교육 - 꿈다락 문화 예술,"디자인,공예,미술,문학,연극/뮤지컬,미디어",,2025-07-02,2025-11-15,경기도 김포시 통진읍 마송1로 150,경기,김포시,37.6879092296021,126.592781106665
407,재단법인 부안군문화재단,꿈의 극단 '부안',5층 교육실,2025 꿈의 극단 운영사업,연극/뮤지컬,"아동,청소년",2025-05-24,2025-11-22,전북특별자치도 부안군 부안읍 매창로 127,전북특별자치도,부안군,35.719260296302,126.732866793874
408,재단법인 태백시문화재단,Sound of music in 태백,꿈꾸는 예술터 탄광사택 누리큐브,2025 꿈다락 문화예술학교,,아동,2025-06-23,2025-08-11,강원특별자치도 태백시 태백산로 4833,강원특별자치도,태백시,37.1316976811938,128.96767940876
409,재단법인 태백시문화재단,미술로 탐험하는 태백산,꿈꾸는 예술터 탄광사택 누리큐브,2025 꿈다락 문화예술학교,,아동,2025-06-28,2025-07-20,강원특별자치도 태백시 태백산로 4833,강원특별자치도,태백시,37.1316976811938,128.96767940876
410,재단법인 태백시문화재단,빛나는 나의 하루,꿈꾸는 예술터 탄광사택 누리큐브,2025 꿈다락 문화예술학교,,아동,2025-07-02,2025-07-07,강원특별자치도 태백시 태백산로 4833,강원특별자치도,태백시,37.1316976811938,128.96767940876
411,주식회사 라온아트앤컬처,뻔Fun한 놀이터,318호 라온아트앤컬처 사무국,2024 늘봄학교 문화예술교육 지원사업,"공예,연극/뮤지컬,융복합",아동,2024-03-13,2024-07-24,경상남도 창원시 마산합포구 3·15대로 120-1,경남,창원시 마산합포구,35.189941050468,128.562812369446
412,주식회사 라온아트앤컬처,Earth Hour! 지구를 위한 1시간,318호 라온아트앤컬처 사무국,2024 늘봄학교 문화예술교육 지원사업,"문학,융복합,기타",아동,2024-03-21,2024-07-18,경상남도 창원시 마산합포구 3·15대로 120-1,경남,창원시 마산합포구,35.189941050468,128.562812369446
413,주식회사 라온아트앤컬처,play with clay,318호 라온아트앤컬처 사무국,2024 늘봄학교 문화예술교육 지원사업,"디자인,공예,융복합",아동,2024-04-02,2024-07-23,경상남도 창원시 마산합포구 3·15대로 120-1,경남,창원시 마산합포구,35.189941050468,128.562812369446
414,주식회사 라온아트앤컬처,깨비몬 어드벤처,318호 라온아트앤컬처 사무국,2024 늘봄학교 문화예술교육 지원사업,"연극/뮤지컬,융복합,기타",아동,2024-03-08,2024-07-18,경상남도 창원시 마산합포구 3·15대로 120-1,경남,창원시 마산합포구,35.189941050468,128.562812369446
415,주식회사 라온아트앤컬처,꿈틀꿈틀 꿈,318호 라온아트앤컬처 사무국,2024 늘봄학교 문화예술교육 지원사업,"디자인,미디어,융복합",아동,2024-03-11,2024-07-08,경상남도 창원시 마산합포구 3·15대로 120-1,경남,창원시 마산합포구,35.189941050468,128.562812369446
416,주식회사 라온아트앤컬처,나도 뮤지컬 스타,318호 라온아트앤컬처 사무국,2024 늘봄학교 문화예술교육 지원사업,"음악,연극/뮤지컬,무용,융복합",아동,2024-03-12,2024-07-25,경상남도 창원시 마산합포구 3·15대로 120-1,경남,창원시 마산합포구,35.189941050468,128.562812369446
417,주식회사 라온아트앤컬처,늘봄 소리,318호 라온아트앤컬처 사무국,2024 늘봄학교 문화예술교육 지원사업,"음악,문학,융복합",아동,2024-03-08,2024-07-08,경상남도 창원시 마산합포구 3·15대로 120-1,경남,창원시 마산합포구,35.189941050468,128.562812369446
418,주식회사 라온아트앤컬처,디자인 블라썸,318호 라온아트앤컬처 사무국,2024 늘봄학교 문화예술교육 지원사업,"디자인,미술,융복합",아동,2024-03-08,2024-07-15,경상남도 창원시 마산합포구 3·15대로 120-1,경남,창원시 마산합포구,35.189941050468,128.562812369446
419,주식회사 라온아트앤컬처,친구가 예술가 : 오늘은 칼퇴합니다.,신추산아파트 상가 4층 (신추산작은도서관),2024 꿈다락 문화예술학교,"문학,연극/뮤지컬",청년,2024-07-04,2024-11-28,경상남도 창원시 마산합포구 문신길 163,경남,창원시 마산합포구,35.2064004814189,128.570091624974
420,주식회사 라온아트앤컬처,봄씨 놀이터,318호 라온아트앤컬처 사무국,2024 늘봄학교 문화예술교육 지원사업,"연극/뮤지컬,무용,융복합",아동,2024-03-15,2024-07-23,경상남도 창원시 마산합포구 3·15대로 120-1,경남,창원시 마산합포구,35.189941050468,128.562812369446
421,주식회사 라온아트앤컬처,봄의 색깔 탐험,318호 라온아트앤컬처 사무국,2024 늘봄학교 문화예술교육 지원사업,"미술,융복합,기타",아동,2024-03-11,2024-07-25,경상남도 창원시 마산합포구 3·15대로 120-1,경남,창원시 마산합포구,35.189941050468,128.562812369446
422,주식회사 라온아트앤컬처,봄이 피어난 작은 이야기,318호 라온아트앤컬처 사무국,2024 늘봄학교 문화예술교육 지원사업,"문학,융복합",아동,2024-03-11,2024-07-26,경상남도 창원시 마산합포구 3·15대로 120-1,경남,창원시 마산합포구,35.189941050468,128.562812369446
423,주식회사 라온아트앤컬처,학교에서 소리랑,318호 라온아트앤컬처 사무국,2024 늘봄학교 문화예술교육 지원사업,"음악,융복합",아동,2024-03-14,2024-07-16,경상남도 창원시 마산합포구 3·15대로 120-1,경남,창원시 마산합포구,35.189941050468,128.562812369446
424,주식회사 라온아트앤컬처,"피어나, 예술봄꽃",318호 라온아트앤컬처 사무국,2024 늘봄학교 문화예술교육 지원사업,"음악,문학,연극/뮤지컬,융복합",아동,2024-05-14,2024-07-26,경상남도 창원시 마산합포구 3·15대로 120-1,경남,창원시 마산합포구,35.189941050468,128.562812369446
425,주식회사 라온아트앤컬처,예술가의 놀이터,318호 라온아트앤컬처 사무국,2024 늘봄학교 문화예술교육 지원사업,"공예,융복합,기타",아동,2024-03-14,2024-07-19,경상남도 창원시 마산합포구 3·15대로 120-1,경남,창원시 마산합포구,35.189941050468,128.562812369446
426,주식회사 라온아트앤컬처,우리는 지금 어떻게 살아갈까?,318호 라온아트앤컬처 사무국,2024 늘봄학교 문화예술교육 지원사업,"국악,융복합,기타",아동,2024-03-13,2024-07-10,경상남도 창원시 마산합포구 3·15대로 120-1,경남,창원시 마산합포구,35.189941050468,128.562812369446
427,주식회사 라온아트앤컬처,우리의 첫페이지,318호 라온아트앤컬처 사무국,2024 늘봄학교 문화예술교육 지원사업,"공예,미술,문학,융복합",아동,2024-03-27,2024-07-26,경상남도 창원시 마산합포구 3·15대로 120-1,경남,창원시 마산합포구,35.189941050468,128.562812369446
428,주식회사 라온아트앤컬처,인공지능과 친구가 될 수 있을까요?,318호 라온아트앤컬처 사무국,2024 늘봄학교 문화예술교육 지원사업,"미디어,융복합,기타",아동,2024-03-22,2024-07-19,경상남도 창원시 마산합포구 3·15대로 120-1,경남,창원시 마산합포구,35.189941050468,128.562812369446
429,주식회사 라온아트앤컬처,좌우로 쿵!짝!,318호 라온아트앤컬처 사무국,2024 늘봄학교 문화예술교육 지원사업,"무용,융복합",아동,2024-03-19,2024-07-18,경상남도 창원시 마산합포구 3·15대로 120-1,경남,창원시 마산합포구,35.189941050468,128.562812369446
430,주식회사 라온아트앤컬처,지금 우리 학교는,318호 라온아트앤컬처 사무국,2024 늘봄학교 문화예술교육 지원사업,"만화/애니메이션,융복합",아동,2024-03-15,2024-07-12,경상남도 창원시 마산합포구 3·15대로 120-1,경남,창원시 마산합포구,35.189941050468,128.562812369446
431,주식회사 라온아트앤컬처,노트 스토리움,지하 1층 그랜드문고,2025 꿈다락 문화예술학교,"문학,융복합",중장년,2025-06-24,2025-11-11,경상남도 창원시 성산구 원이대로 587,경남,창원시 성산구,35.2284139950018,128.679481346866
432,주식회사 라온아트앤컬처,아트 테라피움,지하 1층 그랜드문고,2025 꿈다락 문화예술학교,"공예,융복합",청년,2025-06-24,2025-11-11,경상남도 창원시 성산구 원이대로 587,경남,창원시 성산구,35.2284139950018,128.679481346866
433,주식회사 마인드스페이스,"함께 춤, 함께 여행",별관 3층,"마음치유, 봄처럼",무용,"중장년,노년",2024-06-13,2024-11-14,충청북도 음성군 음성읍 중앙로 49,충북,음성군,36.9288397899772,127.688878088539
434,주식회사 마인드스페이스,성장 그리고 재생,3층,"마음치유, 봄처럼",융복합,"청년,중장년",2024-05-31,2024-09-20,경상남도 김해시 주촌면 주선로 29-1,경남,김해시,35.2347774158212,128.845757106954
435,주식회사 마인드스페이스,"내 마음에 사계절 찾기, 봄, 여름, 가을, 겨울",안성정신건강복지센터,"마음치유, 봄처럼","미술,연극/뮤지컬","청년,중장년",2024-05-07,2024-09-24,경기도 안성시 강변로74번길 24,경기,안성시,36.9998413808275,127.270112950324
436,한복마을 사회적협동조합,아트패션 프로젝트,2층,2024 생애주기별 문화예술교육,"사진,전통",중장년,2024-05-16,2024-11-14,대전광역시 서구 만년로68번길 15-20,대전,서구,36.3663420223114,127.381446292803
437,함께누리 사회적협동조합,다시 꿈꾸다,광진구 평생학습센터,2024 생애주기별 문화예술교육_꿈다락 문화예술학교,"연극/뮤지컬,융복합",노년,2024-07-24,2024-11-30,서울특별시 광진구 자양로15길 60,서울,광진구,37.5352984127979,127.080412690888
438,사단법인 한국연극치료협회,랄랄라청춘극장_다시 봄 : 사랑하자,군포시치매안심센터,"2024 문화예술치유 프로그램 지원사업 「마음치유, 봄",연극/뮤지컬,노년,2024-04-25,2024-08-22,경기도 군포시 군포로 522,경기,군포시,37.3525822159055,126.945663942032
439,사단법인 한국연극치료협회,랄랄라 청춘극장_다시 봄 : 만나다,과천시 치매안심센터,"2024 문화예술치유 프로그램 지원사업 「마음치유, 봄",연극/뮤지컬,노년,2024-06-10,2024-09-11,경기도 과천시 관문로 69,경기,과천시,37.4302215701575,126.986797527355
440,사단법인 한국연극치료협회,우리 극장 : 문턱 넘기,서청주청소년상담복지센터,"2025 문화로 치유 지원사업 「마음치유, 봄처럼」",연극/뮤지컬,청소년,2025-05-10,2025-11-01,충청북도 청주시 흥덕구 직지대로351번길 56,충북,청주시 흥덕구,36.6472111682377,127.432113171141
441,사단법인 한국연극치료협회,Net - Play : Net - Friend,현산초등학교 Wee클래스,,연극,청소년,2023-04-26,2023-11-29,경기도 고양시 일산서구 산현로 87 예술공감터,경기,고양시 일산서구,37.6926996231239,126.771335252034
442,사단법인 한국연극치료협회,클릭!! ‘나에게로 로그인 앤 아웃’,부원초등학교,2024 문화예술치유프로그램 지원사업,연극/뮤지컬,아동,2024-05-01,2024-11-13,경기도 부천시 소사구 호현로447번길 14,경기,부천시 소사구,37.47819045429,126.791236201947
443,사단법인 한국연극치료협회,예술로 또 다시 : 또 다시 새로 봄,송파구 보건지소,"2024 문화예술치유 프로그램 지원사업  마음치유, 봄",연극/뮤지컬,"청년,중장년",2024-06-07,2024-10-25,서울특별시 송파구 양산로 5,서울,송파구,37.4897702878363,127.142670990804
444,사단법인 한국연극치료협회,Net - Play : 하이~큐!,남한중학교 wee클래스,,연극,청소년,2023-05-15,2023-11-13,경기도 하남시 하남대로802번길 21 대안교실,경기,하남시,37.542742265979,127.209275652726
445,사단법인 한국연극치료협회,Net - Play : 플렉스 극장 (Flex Theater),내손초등학교,,연극,청소년,2023-05-26,2023-10-13,경기도 의왕시 내손순환로 175 학급 교실,경기,의왕시,37.3888727209586,126.98167053499
446,사단법인 한국연극치료협회,Net - Play : 인싸 극장 (Insider theater),향동초등학교 Wee클래스,,연극,청소년,2023-05-22,2023-10-19,경기도 고양시 덕양구 향동1로 37 wee클래스 교실,경기,고양시 덕양구,37.6034936902658,126.89547159437
447,사단법인 한국연극치료협회,Net - Play : 지금 우리 학교는,용마초등학교 wee클래스,,연극,청소년,2023-05-11,2023-10-12,경기도 용인시 처인구 금학로 471-1 wee클래스,경기,용인시 처인구,37.2370658398627,127.214897738599
448,사단법인 한국연극치료협회,랄랄라 청춘 극장_치유 마당,B1 소극장 스튜디오SK,2024 문화예술치유 프로그램 지원사업 치유도 예술로,연극/뮤지컬,노년,2024-05-22,2024-05-22,서울특별시 종로구 성균관로 15-10,서울,종로구,37.5839022877656,126.997118075989
449,사단법인 한국연극치료협회,예술로 또 다시 : 또 다시 바람,수원성인정신건강복지센터,"2024 문화예술치유 프로그램 지원사업  마음치유, 봄",연극/뮤지컬,"청년,중장년",2024-04-22,2024-09-04,경기도 수원시 팔달구 매산로 89,경기,수원시 팔달구,37.2704984896655,127.010674176609
450,사단법인 한국연극치료협회,랄랄라 청춘극장_다시 봄 : 새살,덕양구 보건소 치매안심센터,"2024 문화예술치유 프로그램 지원사업 「마음치유, 봄",연극/뮤지컬,노년,2024-06-04,2024-07-31,경기도 고양시 덕양구 화중로104번길 26,경기,고양시 덕양구,37.6358064946768,126.832525163499
451,사단법인 한국연극치료협회,랄랄라 청춘극장_ 안녕? 안녕!,치매안심센터,"2025 문화로 치유 지원사업 「마음치유, 봄처럼」",연극/뮤지컬,노년,2025-06-26,2025-08-28,경기도 고양시 덕양구 은빛로 72,경기,고양시 덕양구,37.6371856406311,126.836189835028
452,사단법인 한국연극치료협회,우리 읍내 극장 : 우리의 이야기,"럭키빌딩 3층, 5층 (울산광역시 청년미래센터)","2025 문화로 치유 지원사업 「마음치유, 봄처럼」",연극/뮤지컬,청년,2025-05-20,2025-10-14,울산광역시 중구 종가6길 8-18,울산,중구,35.5633156546155,129.310647538756
453,사단법인 한국연극치료협회,변화 극장 : 나의 이야기 맞추기,만수북중학교,"2025 문화로 치유 지원사업 「마음치유, 봄처럼」",연극/뮤지컬,청소년,2025-05-02,2025-11-14,인천광역시 남동구 만수서로 117,인천,남동구,37.4618884448083,126.739111977004
454,사단법인 한국연극치료협회,감정의 극장 : 소통의 연극,구성고등학교,"2025 문화로 치유 지원사업 「마음치유, 봄처럼」",연극/뮤지컬,청소년,2025-05-01,2025-11-14,경기도 용인시 기흥구 연원로42번길 47,경기,용인시 기흥구,37.2991448296233,127.115613868368
455,사단법인 한국연극치료협회,클릭!! ‘무대 위로 로그인 앤 아웃’,신관 1층 성남교육지원청위(wee)센터,2024 문화예술치유프로그램 지원사업,연극/뮤지컬,청소년,2024-04-26,2024-11-05,경기도 성남시 수정구 남문로 112,경기,성남시 수정구,37.4473289338741,127.140632227388
456,사단법인 한국연극치료협회,클릭!! ‘Re-Playing 로그인 앤 아웃’,성남서초등학교 Wee클래스,2024 문화예술치유프로그램 지원사업,연극/뮤지컬,아동,2024-05-08,2024-09-26,경기도 성남시 수정구 태평로 19,경기,성남시 수정구,37.4485437801543,127.129424724791
457,사단법인 한국연극치료협회,예술로 또 다시 : 또 다시 무대위로,과천시보건소 2층,"2024 문화예술치유 프로그램 지원사업  마음치유, 봄",연극/뮤지컬,"청년,중장년",2024-05-22,2024-07-24,경기도 과천시 관문로 69,경기,과천시,37.4302215701575,126.986797527355
458,사단법인 한국연극치료협회,랄랄라 청춘극장: 꽃피는 봄날,군포시 보건소 치매안심센터,,연극,노년,2023-05-19,2023-11-03,경기도 군포시 군포로 221,경기,군포시,37.333048025614,126.925414864449
459,사단법인 한국연극치료협회,"랄랄라 청춘극장 : 날마다 풍년, 얼쑤",논산시 치매안심센터,,연극,노년,2023-06-21,2023-08-30,충청남도 논산시 논산대로 408,충남,논산시,36.1965355259911,127.104739683619
460,사단법인 한국연극치료협회,랄랄라 청춘극장: 청춘은 봄!,과천시 보건소 치매안심센터,,연극,노년,2023-05-03,2023-09-13,경기도 과천시 관문로 69,경기,과천시,37.4302215701575,126.986797527355
461,재단법인 논산문화관광재단,다 함께 노래해you,,꿈다락예술문화학교,음악,"아동,중장년",,,"논산시 연산면 선비로231번길 28, 연산문화창고",충남,논산시,36.213239179388,127.201433517827
462,재단법인 논산문화관광재단,"꼬마 작곡가 뚱땅뚱땅, 우리는 뮤지션",,꿈다락예술문화학교,음악,아동,,,"논산시 연산면 선비로231번길 28, 연산문화창고",충남,논산시,36.213239179388,127.201433517827
463,재단법인 예천문화관광재단,꿈의 오케스트라 예천,예천군문화회관 2층 (재)예천문화관광재단,꿈의 오케스트라,음악,"아동,청소년",2022-04-14,2028-12-31,경상북도 예천군 예천읍 충효로 209-15,경북,예천군,36.6512480356126,128.446476537911
464,재단법인 충주문화관광재단,2025 생활밀착형 문화예술교육 지원사업 '가가호호',충주문화관광재단,2025 생활밀착형 문화예술교육 지원사업 '가가호호',"음악,공예,사진,미술,무용",,2025-06-04,2025-11-01,충청북도 충주시 중앙로 128,충북,충주시,36.9706186827604,127.937220826556
465,주식회사 공감두예술교육센터,자람새(몸과 마음이 자라는),위클래스,"2024 문화예술치유 마음치유, 봄처럼",연극/뮤지컬,아동,2024-05-08,2024-11-13,경기도 김포시 김포한강9로115번길 57,경기,김포시,37.6477391974818,126.621883335884
466,주식회사 공감두예술교육센터,자람새(몸과 마음이 자라는),위클래스,"2024 문화예술치유 마음치유, 봄처럼",연극/뮤지컬,아동,2024-05-09,2024-11-14,경기도 고양시 덕양구 신원3로 21,경기,고양시 덕양구,37.6678055808861,126.885883262844
467,주식회사 공감두예술교육센터,자람새(몸과 마음이 자라는),위클래스,"2024 문화예술치유  마음치유, 봄처럼",연극/뮤지컬,아동,2024-05-07,2024-11-15,경기도 고양시 일산동구 숲속마을로 139,경기,고양시 일산동구,37.6725866945208,126.79657775488
468,힐링트리 통합예술치유연구소,내 인생의 꽃길,4층,"마음치유, 봄처럼","음악,미술,연극/뮤지컬,무용,융복합",노년,2024-08-09,2024-11-08,경기도 수원시 영통구 영통로 396,경기,수원시 영통구,37.2568828036311,127.069710816696
469,힐링트리 통합예술치유연구소,생애전환 문화예술학교 춘남이의 예술 여행기,,꿈다락예술문화학교,"사진,연극/뮤지컬,무용",중장년,,,부천시 원미로 202 부천동종합사회복지관 교육장,경기,부천시 원미구,37.5007592717346,126.7952310736
470,힐링트리 통합예술치유연구소,늘봄(언제나 봄처럼 활기차게),별관 2층,"마음치유, 봄처럼","음악,미술,연극/뮤지컬,무용,융복합","청년,중장년",2024-08-13,2024-11-19,인천광역시 부평구 부흥로 287,인천,부평구,37.4989341652034,126.723782466335
471,힐링트리 통합예술치유연구소,마음의 피로를 씻어내는 ‘힐링 목욕탕’,별관 강동구 치매안심센터,"마음치유, 봄처럼 치매안심센터 협력","음악,미술,연극/뮤지컬,무용",노년,2024-05-07,2024-08-06,서울특별시 강동구 성내로 45,서울,강동구,37.5295419850552,127.125585505976
472,힐링트리 통합예술치유연구소,나를 말하다,별관 1층,"마음치유, 봄처럼","음악,미술,연극/뮤지컬,무용,융복합","청년,중장년",2024-08-09,2024-11-08,경기도 의왕시 오봉로 34,경기,의왕시,37.3437876927353,126.971993805282
473,힐링트리 통합예술치유연구소,"창조적 노화, 예술로 다시 피어나는 꽃",광명시립 소하노인종합복지관,2024 생애주기별 문화예술교육 지원사업 <꿈다락 문화,"음악,미술,연극/뮤지컬,미디어",노년,2024-07-29,2024-10-07,경기도 광명시 소하로 25,경기,광명시,37.4522229067659,126.884969410898
474,힐링트리 통합예술치유연구소,봄(Spring) 봄(See) 봄(Care),농협건물 3층 프로그램실,"마음치유, 봄처럼 치매안심센터 협력","음악,미술,연극/뮤지컬,무용",노년,2024-05-07,2024-08-06,경기도 용인시 수지구 문정로 20,경기,용인시 수지구,37.3226948889586,127.096415925189
475,힐링트리 통합예술치유연구소,청소년X예술가 나도X예술가-나의 소망 뮤지컬 ,,꿈다락예술문화학교,연극/뮤지컬,아동,,,부천시 조마루로372번길 38  서부지역아동센터,경기,부천시 원미구,37.4964682571667,126.784602933977
476,힐링트리 통합예술치유연구소,"내 마음의 씨앗, 예술로 피다",연수구 치매안심센턴 프로그램실,"마음치유, 봄처럼 치매안심센터 협력","음악,미술,연극/뮤지컬,무용",노년,2024-07-25,2024-11-07,인천광역시 연수구 예술로20번길 15,인천,연수구,37.4357830923465,126.699647422306
477,사단법인 경남예술교육경영센터,신바람 관악오케스트라,3층,2024 예술로어울림,음악,청소년,2024-07-06,2024-11-15,경상남도 거창군 거창읍 거열로 246-13,경남,거창군,35.6934939885374,127.919395134999
478,사단법인 경남예술교육경영센터,춤추는 취우령,거창연극학교 장미극장,2024 예술로어울림,연극/뮤지컬,"아동,청년,중장년,노년,장애인",2024-06-28,2024-12-03,경상남도 거창군 위천면 빼재로 796,경남,거창군,35.7680887428742,127.863112841412
479,사단법인 경남예술교육경영센터,컨추리뮤지컬,웅양종합복지센터,2024 예술로어울림,연극/뮤지컬,아동,2024-06-28,2024-11-29,경상남도 거창군 웅양면 웅양로 1443-6,경남,거창군,35.8065183349211,127.91835466004
480,사단법인 경남예술교육경영센터,연필로 물로 세상을 그린다.,거창군 종합사회복지관,2024 예술로어울림,미술,"중장년,노년",2024-07-08,2024-09-19,경상남도 거창군 거창읍 아림로 66,경남,거창군,35.6890647450756,127.909834029791
481,사단법인 경남예술교육경영센터,"매혹의 은율, 섹소폰",거창문화원,2024 예술로어울림,음악,"중장년,노년",2024-09-23,2024-11-20,경상남도 거창군 거창읍 수남로 2193-40,경남,거창군,35.6735339248958,127.909395951263
482,사단법인 경남예술교육경영센터,"웰빙찾아, 소리찾아",거창읍 행정복지센터,2024 예술로어울림,국악,노년,2024-06-28,2024-12-02,경상남도 거창군 거창읍 거열로 90,경남,거창군,35.6878737505414,127.903576227869
483,사단법인 경남예술교육경영센터,댄스는 즐겁고 인생은 활기차,거창군 종합사회복지관,2024 예술로어울림,무용,"중장년,노년",2024-07-05,2024-12-04,경상남도 거창군 거창읍 아림로 66,경남,거창군,35.6890647450756,127.909834029791
484,사단법인 경남예술교육경영센터,클래식 앙상블로 여행하기,거창 APAN 2층 담소마당,2024 예술로어울림,음악,"중장년,노년",2024-08-12,2024-11-27,경상남도 거창군 거창읍 거열로1길 78-57,경남,거창군,35.6947702944366,127.911126495978
485,사단법인 경남예술교육경영센터,위천은 아름다워,위천면사무소,2024 예술로어울림,연극/뮤지컬,노년,2024-06-25,2024-11-16,경상남도 거창군 위천면 원학길 324,경남,거창군,35.7496190175722,127.833129844524
486,사단법인 경남예술교육경영센터,판소리는 남도민요를 싣고,거창문화원,2024 예술로어울림,국악,"중장년,노년",2024-07-07,2024-11-10,경상남도 거창군 거창읍 수남로 2193-40,경남,거창군,35.6735339248958,127.909395951263
487,사단법인 경남예술교육경영센터,그시절 그노래는 그리워,위천면 사회복지회관,2024 예술로어울림,음악,노년,2024-06-27,2024-11-14,경상남도 거창군 위천면 장터길 37,경남,거창군,35.7501094152088,127.832760717126
488,사단법인 한국임상연극심리치료협회,응답하라 혜화동이여~!,,꿈다락예술문화학교,연극/뮤지컬,노년,,,종로구 혜화동20-18 한국임상연극심리치료협회,서울,종로구,37.5887814684485,127.00058457454
489,사단법인 한국임상연극심리치료협회,친구가 예술가 자전공연 여행기 내 삶의 주인공,,꿈다락예술문화학교,연극/뮤지컬,청년,,,종로구 혜화동20-18 한국임상연극심리치료협회,서울,종로구,37.5887814684485,127.00058457454
490,사단법인 한국임상연극심리치료협회,플레이백회상연극 당신의 이야기,,꿈다락예술문화학교,연극/뮤지컬,노년,,,"부평구 안남로253번길 34 산곡노인문화센터 내 강의실, 대강당",인천,부평구,37.5061173095676,126.707096256725
491,재단법인 인천광역시부평구문화재단,일상창작 <나의 한 평(3.3㎡) 우주> 2기,"3층, 부평문화사랑방",자제사업,미술,"청년,중장년,노년",2024-08-29,2024-08-30,인천광역시 부평구 주부토로 173,인천,부평구,37.5107423373296,126.725712196834
492,재단법인 인천광역시부평구문화재단,어린이 문화예술학교 <숲의 아이> 2기,부평아트센터,2024 꿈다락 문화예술학교,미술,아동,2024-09-07,2024-10-19,인천광역시 부평구 아트센터로 166,인천,부평구,37.4822382970846,126.704933448809
493,재단법인 인천광역시부평구문화재단,어린이 문화예술학교 <숲의 아이> 1기,부평아트센터,2024 꿈다락 문화예술학교,미술,아동,2024-07-06,2024-08-17,인천광역시 부평구 아트센터로 166,인천,부평구,37.4822382970846,126.704933448809
494,재단법인 인천광역시부평구문화재단,어린이 문화예술학교 <숲의 아이> 2기,부평아트센터,2024 꿈다락 문화예술학교,미술,아동,2024-09-07,2024-10-19,인천광역시 부평구 아트센터로 166,인천,부평구,37.4822382970846,126.704933448809
495,토이파파(주),작가에게 배우는 만화웹툰,201호,,만화/애니메이션,청소년,2022-09-01,2022-09-30,대전광역시 서구 변동중로 24-23,대전,서구,36.3271511097507,127.373905068645
496,아르뗴맵(창작집단 드림),상상 실험실: 예술 × AI,울산마을교육공동체 거점센터,2025 생애주기별문화예술교육지원사업 「꿈다락 문화예술,"무용,미디어","아동,청소년",2025-06-13,2025-11-28,울산광역시 울주군 상북면 석남로 832,울산,울주군,35.6150208665407,129.067894599542
497,아르뗴맵(창작집단 드림),늦봄의 예술정원,울주생활문화센터,2025 생애주기별문화예술교육지원사업 「꿈다락 문화예술,"사진,미술,문학,융복합",노년,2025-07-04,2025-11-28,울산광역시 울주군 두서면 인보로 95,울산,울주군,35.6436494825517,129.159155925219
498,아르뗴맵(창작집단 드림),엄마의 하루 틈 예술일기,영남알프스 복합웰컴센터 세미나실,2025 생애주기별문화예술교육지원사업 「꿈다락 문화예술,"미술,연극/뮤지컬",중장년,2025-07-01,2025-11-29,울산광역시 울주군 상북면 알프스온천5길 103-8,울산,울주군,35.5563310754228,129.067874304519
499,교육극단안,연극) 2023. 성안길에 기차가 달리다,교육극단안,,연극,아동,2023-05-13,2023-11-18,충청북도 청주시 흥덕구 죽천로131번길 8-1,충북,청주시 흥덕구,36.6384283805937,127.437526136422
500,노원문화원,노원에 사는 미자씨,노원문화원,꿈다락문화예술학교,음악,노년,2024-07-30,2024-10-08,서울특별시 노원구 동일로197길 24,서울,노원구,37.6287989945413,127.069800913955
501,노이에클랑,가족 합창 프로그램 동화나라 가족 합창단,,꿈다락예술문화학교,음악,"아동,청소년,청년,중장년,노년",,,유성구 엑스포로97번길 40 (골프존 조이마루) 지상 6층 플랜에이 B홀,대전,유성구,36.376343373624,127.390466196206
502,놀이요점빵,아주 보통의 하루,동구 미로센터,2025 생애주기별 문화예술교육 지원사업,"공예,미술,문학","청년,중장년",2025-07-08,2025-09-09,광주광역시 동구 중앙로196번길 15-12,광주,동구,35.150051542673,126.917885975555
503,놀이요점빵,관조하는 시간,동구미로센터,2025 생애주기별 문화예술교육 지원사업,"미술,무용,융복합",노년,2025-08-21,2025-10-30,광주광역시 동구 중앙로196번길 15-12,광주,동구,35.150051542673,126.917885975555
504,놀이요점빵,미술관 밖 아이들!,광주시립미술관,2025 생애주기별 문화예술교육 지원사업,"미술,기타","아동,청소년",2025-09-07,2025-11-16,광주광역시 북구 하서로 52,광주,북구,35.1832330525449,126.88573575516
505,놀이요점빵,모두가 함께 사는 지구별,광주광역시 소재 14개 지역아동센터,,기타,"아동,청소년",2023-06-01,2023-11-30,광주광역시 광산구 목련로 41 212동 1001호,광주,광산구,35.1751867386011,126.802135483878
506,대덕문화원,철학자의 모놀로그_자신과 대화하는 독백 : 스피치 클래,대덕문화원,2025 꿈다락 문화예술학교(생활거점형),"연극/뮤지컬,융복합,기타",중장년,2025-08-05,2025-10-24,대전광역시 대덕구 대전로 1348,대전,대덕구,36.3740939963058,127.420741256844
507,대덕문화원,움직이는 삶의 페이지 : 인생을 돌아보는 예술자서전,대덕문화원,2025 꿈다락 문화예술학교(생활거점형),"미술,연극/뮤지컬,융복합,기타",노년,2025-07-29,2025-10-24,대전광역시 대덕구 대전로 1348,대전,대덕구,36.3740939963058,127.420741256844
508,대덕문화원,상상 네 컷 : 웹드라마 촬영 체험,대덕문화원,2025 꿈다락 문화예술학교(생활거점형),"영화,미술,연극/뮤지컬,융복합",청소년,2025-07-28,2025-10-24,대전광역시 대덕구 대전로 1348,대전,대덕구,36.3740939963058,127.420741256844
509,대덕문화원,내 생애 가장 소중한 동화 : 동화책 만들기,대덕문화원,2025 꿈다락 문화예술학교(생활거점형),"문학,연극/뮤지컬,융복합",중장년,2025-08-05,2025-10-24,대전광역시 대덕구 대전로 1348,대전,대덕구,36.3740939963058,127.420741256844
510,대전북포럼,그림책 연극놀이,5층 시청각실,2024 생애주기별 문화예술교육지원사업,"문학,연극/뮤지컬,융복합",아동,2024-04-20,2024-11-16,대전광역시 서구 가수원로 91-11,대전,서구,36.3016940197621,127.348922675391
511,디오니소스,엉망진창 무대 만들기,,꿈다락예술문화학교,연극/뮤지컬,아동,,,보령시 현충탑길 65 sk뷰 아파트 상가동 지하 1층 포도극장,충남,보령시,36.3426132591858,126.598649900805
512,디오니소스,"생애전환 문화예술학교 보령청년 연극 커뮤니티 - 연극, 나를 발견하다",,꿈다락예술문화학교,연극/뮤지컬,"청년,중장년",,,보령시 현충탑길 65 sk뷰 아파트 상가동 지하 1층 포도극장,충남,보령시,36.3426132591858,126.598649900805
513,디오니소스,일상의 작가  가족이 함께하는 문화 프로그램 - 예술가-족,,꿈다락예술문화학교,"디자인,문학","아동,청소년,중장년",,,"보령시 청라면 원모루길 234, 2층 공립청라애작은도서관",충남,보령시,36.3897726402388,126.673931997284
514,모긴미술관,작가와 함께 떠나는 토요예술산책,,꿈다락예술문화학교,"미술,미디어",노년,,,순천시 향교길 26 모긴미술관,전남,순천시,34.9543457367781,127.481822717761
515,모란미술관,골짜기의 백합,별관 모란스페이스,꿈다락 문화예술학교 통합자율형,"공예,문학",노년,2025-06-20,2025-09-06,경기도 남양주시 화도읍 경춘로2110번길 8,경기,남양주시,37.6504134997667,127.323777494812
516,모란미술관,속닥속닥 피크닉,모란미술관,꿈다락 문화예술학교 통합자율형,"미술,무용",,2025-09-13,2025-11-22,경기도 남양주시 화도읍 경춘로2110번길 8,경기,남양주시,37.6504134997667,127.323777494812
517,무나앙상블,청소년 음악캠프 <슈퍼밴드제주2>,신천 해수풀장 옆 신축 건물,2025 청소년 문화예술교육 방학일기,"음악,융복합",청소년,2025-07-12,2025-08-09,제주특별자치도 서귀포시 성산읍 신천로49번길 32,제주특별자치도,서귀포시,33.3411657139148,126.855598439789
518,무나앙상블,청소년 음악캠프 <슈퍼밴드제주>,바당해녀문화예술센터,「2024 청소년 문화예술교육 방학일기 - 청소년,"음악,융복합",청소년,2024-08-09,2024-08-10,제주특별자치도 서귀포시 성산읍 신천로49번길 32,제주특별자치도,서귀포시,33.3411657139148,126.855598439789
519,문화추물락,마을예술퐁낭,영평하동 마을회관 1층,2024 예술로어울림,미술,노년,2024-07-04,2024-10-31,제주특별자치도 제주시 영강길 142,제주특별자치도,제주시,33.4863082209678,126.573894427308
520,문화추물락,별빛밴드 음악창작교실,아트락소극장,2024 예술로어울림,음악,장애인,2024-07-02,2024-11-19,제주특별자치도 제주시 연신로 156,제주특별자치도,제주시,33.4887702054627,126.553008346642
521,문화추물락,꿈-두드림,아트락소극장,2024 예술로어울림,음악,중장년,2024-07-04,2024-12-12,제주특별자치도 제주시 연신로 156,제주특별자치도,제주시,33.4887702054627,126.553008346642
522,문화추물락,첼로소리가 흐르는 마을,아트락소극장,2024 예술로어울림,음악,"아동,중장년",2024-07-03,2024-11-27,제주특별자치도 제주시 연신로 156,제주특별자치도,제주시,33.4887702054627,126.553008346642
523,문화추물락,아마밴드,아트락소극장,2024 예술로어울림,음악,중장년,2024-07-29,2024-11-29,제주특별자치도 제주시 연신로 156,제주특별자치도,제주시,33.4887702054627,126.553008346642
524,문화추물락,사진으로 일상다큐,영평하동 마을회관 2층,2024 예술로어울림,사진,"청년,중장년",2024-08-28,2024-11-09,제주특별자치도 제주시 영강길 142,제주특별자치도,제주시,33.4863082209678,126.573894427308
525,문화추물락,우쿨우쿨 알로하~,아트락소극장,2024 예술로어울림,음악,"아동,중장년",2024-08-31,2024-11-23,제주특별자치도 제주시 연신로 156,제주특별자치도,제주시,33.4887702054627,126.553008346642
526,문화추물락,우리마을 예술로어울림 콘서트,아트락소극장,2024 예술로어울림,,,2024-12-02,2024-12-14,제주특별자치도 제주시 연신로 156,제주특별자치도,제주시,33.4887702054627,126.553008346642
527,문화추물락,청춘음악살롱,도평 경로당,2024 예술로어울림,음악,노년,2024-07-04,2024-10-31,제주특별자치도 제주시 도평길 27,제주특별자치도,제주시,33.4797907263261,126.448131185776
528,문화추물락,탐나는 음악가,아트락소극장,2024 예술로어울림,음악,"아동,청소년",2024-07-29,2024-12-10,제주특별자치도 제주시 연신로 156,제주특별자치도,제주시,33.4887702054627,126.553008346642
529,뮤직팩토리,2023 예술누림 사각지대_토닥토닥예술드림,익산학교밖청소년지원센터,,음악,청소년,2023-06-12,2023-11-13,전라북도 익산시 인북로 187 익산학교밖청소년지원센터,전북특별자치도,익산시,35.9456166507403,126.955544745495
530,뮤직팩토리,2023 예술누림 지역아동센터 이용 아동 · 청소년_예술특공대,대전·충북지역 지역아동센터,,음악,아동,2023-06-01,2023-11-30,대전광역시 서구 정림서로 162-15 2층,대전,서구,36.303281689254,127.363868670472
531,뮤직팩토리,예술특공대,,2023 예술누림 지역아동센터 이용 아동청소년,음악,"아동,청소년",2024-01-01,2024-11-30,대전광역시 서구 계백로1300번길 23,대전,서구,36.3074017527551,127.3676265789
532,뮤직팩토리,2023 예술누림 사각지대_예솔로토닥토닥,은샘공동체,,음악,장애인,2023-06-02,2023-11-24,대전광역시 유성구 신성로62번길 18 1층,대전,유성구,36.3883831450315,127.348373507055
533,뮤직팩토리,세기의작곡가와 함께하는 마술피리 앙상블,동진프라자 7층,2025 생애주기별 문화예술교육 지원사업,음악,"아동,청소년,장애인",2025-04-05,2025-09-27,대전광역시 동구 옥천로176번길 15-4,대전,동구,36.3160445981979,127.459997872887
534,뮤직팩토리,꿈꾸는 행복예술터,6층,2024 기관연계형 문화예술교육,음악,"아동,청소년",2024-06-10,2024-10-28,대전광역시 동구 대전천동로 508,대전,동구,36.326992084421,127.432905315097
535,미래콘텐츠,악기로 노는 언니들,창원,,음악,청소년,2023-04-01,2023-12-15,경상남도 창원시 의창구 북면 동전로 179-18 북면,경남,창원시 의창구,35.3118333277568,128.595732394559
536,민화팩토리,무소속을 위하여,,꿈다락예술문화학교,"디자인,미술",청년,,,"영등포구 문래동6가 24-1 에이스하이테크시티2차 511 민화팩토리, 관내도서관",서울,영등포구,37.5190678529024,126.885976114878
537,민화팩토리,일상의 작가 소통도감,,꿈다락예술문화학교,"디자인,미술","아동,청소년,청년,중장년,노년",,,"영등포구 문래동6가 24-1 에이스하이테크시티2차 512 민화팩토리, 관내도서관",서울,영등포구,37.5190678529024,126.885976114878
538,박물관휴르,행(운을 부르는) 복(부엉이) 민화,박물관 휴르,2024 꿈다락 문화예술학교,미술,중장년,2024-08-08,2024-10-31,대구광역시 수성구 국채보상로186길 47,대구,수성구,35.8660553902106,128.633230412156
539,사나래학당,태백 광산의 도깨비마을,산소드림도서관,꿈다락문화예술학교,융복합,아동,2024-07-01,2024-10-30,강원특별자치도 태백시 장수길 33,강원특별자치도,태백시,37.1799990976078,128.984988625956
540,사나래학당,이야기의 정원,산소드림도서관,생애주기 문화예술교육지원사업,"미술,문학,미디어,융복합","아동,청소년,노년",2025-07-01,2025-11-29,강원특별자치도 태백시 장수길 33,강원특별자치도,태백시,37.1799990976078,128.984988625956
541,쉐마미술관,최민솔 작가와 함께하는 폼Form폼Form폼Form,쉐마미술관,2024  충북형 생애주기 문화예술교육지원사업(유아),미술,유아,2024-05-21,2024-07-31,충청북도 청주시 청원구 내수읍 내수로 241,충북,청주시 청원구,36.6950252995816,127.499681465587
542,쉐마미술관,예술가의 감각연구소2,쉐마미술관,2025 꿈다락문화예술학교,미술,청소년,2025-05-13,2025-12-31,충청북도 청주시 청원구 내수읍 내수로 241,충북,청주시 청원구,36.6950252995816,127.499681465587
543,쉐마미술관,예술가의 감각연구소1,쉐마미술관,2025 꿈다락문화예술학교,미술,청소년,2025-05-13,2025-12-31,충청북도 청주시 청원구 내수읍 내수로 241,충북,청주시 청원구,36.6950252995816,127.499681465587
544,쉐마미술관,쉐마미술관 아틀리에 ver.1,,꿈다락예술문화학교,미술,아동,,,청주시 청원구 내수읍 내수로 241 쉐마미술관,충북,청주시 청원구,36.6950252995816,127.499681465587
545,쉐마미술관,쉐마미술관 아틀리에 ver.2,,꿈다락예술문화학교,미술,아동,,,청주시 청원구 내수로 241 쉐마미술관,충북,청주시 청원구,36.6950252995816,127.499681465587
546,아트핑거스,그림책이 살아있다,꿈길 작은도서관,2024 꿈다락 문화예술학교,"음악,영화,사진,문학,융복합",아동,2024-07-09,2024-11-26,경기도 화성시 동탄지성로 256,경기,화성시 병점구,37.2181068147977,127.053444362896
547,아트핑거스,사운드 오브 무비,주민공동시설 1층 굿모닝 작은도서관,2024 꿈다락 문화예술학교,"음악,영화,사진,미디어,융복합",,2024-07-12,2024-11-22,경기도 용인시 수지구 동천로 64,경기,용인시 수지구,37.3409855225609,127.09831973411
548,연수문화원,2024 꿈다락문화예술학교예술쉼표<유리로찾는퍼스널컬러>,2층 미디어강의실,2024 꿈다락문화예술학교,공예,"청년,중장년",2024-08-01,2024-11-07,인천광역시 연수구 비류대로 299,인천,연수구,37.4263057123483,126.667668612565
549,연수문화원,2024 꿈다락문화예술학교모두작곡가<우리는싱싱한예술가>,2층 미디어강의실,2024 꿈다락문화예술학교,음악,노년,2024-07-10,2024-09-11,인천광역시 연수구 비류대로 299,인천,연수구,37.4263057123483,126.667668612565
550,임실문화원,2024꿈의 오케스트라 임실,임실문화원,2024 꿈의 오케스트라 운영사업,음악,"아동,청소년",2024-02-26,2024-12-09,전북특별자치도 임실군 임실읍 봉황로 131,전북특별자치도,임실군,35.6126958542789,127.277529217787
551,임실문화원,2025 꿈의 오케스트라 임실,임실문화원,2025 꿈의 오케스트라 운영사업,음악,"아동,청소년",2025-02-17,2025-12-01,전북특별자치도 임실군 임실읍 봉황로 131,전북특별자치도,임실군,35.6126958542789,127.277529217787
552,임실문화원,2025 꿈의 무용단 임실,임실문화원,2025 꿈의 무용단 운영사업,무용,"아동,청소년",2025-05-10,2025-11-29,전북특별자치도 임실군 임실읍 봉황로 131,전북특별자치도,임실군,35.6126958542789,127.277529217787
553,자람더잘함,서생 속 가을 스케치,정철교 미술관,2024 생애주기별 문화예술교육 지원사업,"공예,미술","중장년,노년",2024-09-03,2024-11-12,울산광역시 울주군 서생면 덕골재길 31-6,울산,울주군,35.3530287855365,129.324269283228
554,자람더잘함,내가 가진 비타민 찾기,우성빌딩 4층 자람더잘함,2024 생애주기별 문화예술교육 지원사업,미술,"중장년,노년",2024-08-05,2024-10-14,부산광역시 수영구 수영로 687,부산,수영구,35.1669733618649,129.114766550534
555,조용한수다,2023 문화예술교육 지원사업 예술누림(사각지대),꿈꾸는 극장,,"음악,기타","아동,청소년",2023-05-12,2023-09-22,부산광역시 부산진구 당감로17번길 90 107동 202호,부산,부산진구,35.1631198637803,129.035473803237
556,조용한수다,영주마을 음악창작소&오케스트라,"1~4층, 영주어울림플랫폼",2025 꿈다락 문화예술학교,"음악,융복합",,2025-07-05,2025-10-25,부산광역시 중구 초량상로7번길 11-1,부산,중구,35.1132140657765,129.034241316255
557,창의공작소,Kriss! 비표준 예술에 빠지다,교육장,2024 기관연계형 문화예술교육,"공예,사진","청년,중장년",2024-06-14,2024-11-06,대전광역시 유성구 가정로 267,대전,유성구,36.3855999323396,127.368507487933
558,창의공작소,수제 장난감 공작소,,꿈다락예술문화학교,공예,"아동,청소년,청년,중장년,노년",,,"서구 복수남로 56, 201호 초록마을작은도서관",대전,서구,36.2984997985525,127.375365304383
559,창의공작소,제 취미는 캘리그라피입니다,우성아파트2차,,미술,"청년,중장년",2022-09-01,2022-09-30,대전광역시 서구 정림서로 162-15,대전,서구,36.303281689254,127.363868670472
560,창의공작소,내일은 K-웹툰 작가,,꿈다락예술문화학교,만화/애니메이션,"아동,청소년,청년,중장년,노년",,,"서구 복수남로 56, 201호 초록마을작은도서관",대전,서구,36.2984997985525,127.375365304383
561,춤추는인생,인생은바운스,2층 어울림공간연습실,생애주기별 문화예술교육 지원사업 <꿈다락 문화예술학교>,"문학,무용","중장년,노년",2024-09-02,2024-11-02,경기도 하남시 아리수로 570,경기,하남시,37.566815029598,127.19041098513
562,충주박물관,고고!(GO!古) 선사마을,조동리선사유적박물관,충북형 생애주기 문화예술교육지원사업_유형1(영유아),융복합,유아,2024-05-13,2024-07-23,충청북도 충주시 동량면 조동1길 15,충북,충주시,37.0264191426674,127.961865378539
563,콘텐츠잇다,보컬 트레이닝 「꿈꾸는 뮤지션」,상평복합문화센터 1층 강의실,2024 예술로 어울림,"음악,영화,만화/애니메이션,미술,문학,연극/뮤지컬,무용,미디어,융복합",,2024-07-01,2024-11-29,경상남도 진주시 대신로244번길 8,경남,진주시,35.1819180728718,128.118348441942
564,콘텐츠잇다,"영화 제작 「퇴근후, 영화 제작소」",상평복합문화센터 2층 GX룸,2024 예술로 어울림,"음악,영화,만화/애니메이션,미술,문학,연극/뮤지컬,무용,미디어,융복합",,2024-07-01,2024-11-29,경상남도 진주시 대신로244번길 8,경남,진주시,35.1819180728718,128.118348441942
565,콘텐츠잇다,창작 무용 「춤으로 피우는 꽃」,상평복합문화센터 2층 GX룸,2024 예술로 어울림,"음악,영화,만화/애니메이션,미술,문학,연극/뮤지컬,무용,미디어,융복합",,2024-07-01,2024-11-29,경상남도 진주시 대신로244번길 8,경남,진주시,35.1819180728718,128.118348441942
566,콘텐츠잇다,생애전환 문화예술학교 품격있는 고난(영상)으로 한 달 살아보기 (신중년5055),,꿈다락예술문화학교,미디어,중장년,,,"창원시 마산회원구 회성시장1길 5, 3층 스튜디오다",경남,창원시 마산회원구,35.2333066901309,128.560170729029
567,콘텐츠잇다,생애전환 문화예술학교 품격있는 고난(사진)으로 한 달 살아보기 (신중년5560),,꿈다락예술문화학교,사진,중장년,,,"창원시 마산회원구 회성시장1길 5, 3층 스튜디오다",경남,창원시 마산회원구,35.2333066901309,128.560170729029
568,콘텐츠잇다,뮤지컬 프로젝트 「ROMANCE」,상평복합문화센터 2층 GX룸,2024 예술로 어울림,"음악,영화,만화/애니메이션,미술,문학,연극/뮤지컬,무용,미디어,융복합",,2024-07-01,2024-11-29,경상남도 진주시 대신로244번길 8,경남,진주시,35.1819180728718,128.118348441942
569,콘텐츠잇다,연기 교육 「마음을 담는 엑팅」,상평복합문화센터 1층 강의실,2024 예술로 어울림,"음악,영화,만화/애니메이션,미술,문학,연극/뮤지컬,무용,미디어,융복합",,2024-07-01,2024-11-29,경상남도 진주시 대신로244번길 8,경남,진주시,35.1819180728718,128.118348441942
570,콘텐츠잇다,드로잉 교육 「클래식과 디지털아트」,상평복합문화센터 1층 강의실,2024 예술로 어울림,"음악,영화,만화/애니메이션,미술,문학,연극/뮤지컬,무용,미디어,융복합",,2024-07-01,2024-11-29,경상남도 진주시 대신로244번길 8,경남,진주시,35.1819180728718,128.118348441942
571,콘텐츠잇다,"웹툰 교육 「퇴근후, 웹툰 제작소」",상평복합문화센터 1층 강의실,2024 예술로 어울림,"음악,영화,만화/애니메이션,미술,연극/뮤지컬,무용,미디어,융복합",,2024-07-01,2024-11-29,경상남도 진주시 대신로244번길 8,경남,진주시,35.1819180728718,128.118348441942
572,콘텐츠잇다,"문학 토론 「퇴근후, 문학의 밤」",상평복합문화센터 1층 강의실,2024 예술로 어울림,"음악,영화,만화/애니메이션,미술,문학,연극/뮤지컬,무용,미디어,융복합",,2024-07-01,2024-11-29,경상남도 진주시 대신로244번길 8,경남,진주시,35.1819180728718,128.118348441942
573,콘텐츠잇다,생애전환 문화예술학교 품격있는 고난(영상)으로 한 달 살아보기 (신중년5560),,꿈다락예술문화학교,미디어,중장년,,,"창원시 마산회원구 회성시장1길 5, 3층 스튜디오다",경남,창원시 마산회원구,35.2333066901309,128.560170729029
574,콘텐츠잇다,생애전환 문화예술학교 품격있는 고난(영상)으로 한 달 살아보기 (신중년6064),,꿈다락예술문화학교,미디어,중장년,,,"창원시 마산회원구 회성시장1길 5, 3층 스튜디오다",경남,창원시 마산회원구,35.2333066901309,128.560170729029
575,콘텐츠잇다,생애전환 문화예술학교 품격있는 고난(사진)으로 한 달 살아보기 (신중년5055),,꿈다락예술문화학교,사진,중장년,,,"창원시 마산회원구 회성시장1길 5, 3층 스튜디오다",경남,창원시 마산회원구,35.2333066901309,128.560170729029
576,폴링인북스,시간여행자들의 상상탐험,3층 마을기록관,2025 꿈다락 문화예술학교,미술,아동,2025-07-05,2025-11-15,부산광역시 북구 양달로 58,부산,북구,35.2435185530891,129.019843763482
577,폴링인북스,"감각상자, 숲에서 피어나는 예술",장산대천공원 숲속책방 일대,2025 꿈다락 문화예술학교,미술,아동,2025-09-07,2025-11-09,부산광역시 해운대구 장산로 331-18,부산,해운대구,35.181339428919,129.167828285085
578,하랑씨어터,"유연한 함께 살기 <나의 앤, 우리의 에이번리>",GX커뮤니티룸,꿈다락예술문화학교,연극/뮤지컬,"아동,청소년,중장년",2024-07-14,2024-11-24,경기도 파주시 가람로 22,경기,파주시,37.7329023877326,126.753352282563
579,하랑씨어터,청소년 작곡프로그램 더하랑콘서트,주엽커뮤니티센터,꿈다락예술문화학교,"음악,연극/뮤지컬",아동,2024-07-13,2024-11-23,경기도 고양시 일산서구 중앙로 지하1431,경기,고양시 일산서구,37.6701210381368,126.76122949788
580,하랑씨어터,청소년X예술가 <안녕마이드림>,주엽커뮤니티센터,꿈다락예술문화학교,연극/뮤지컬,"아동,청소년",2024-07-13,2024-11-23,경기도 고양시 일산서구 중앙로 지하1431,경기,고양시 일산서구,37.6701210381368,126.76122949788
581,하랑씨어터,세상을 노래하다! <그것만이 내 세상>,GX커뮤니티룸,꿈다락예술문화학교,음악,"청년,중장년",2024-07-14,2024-11-24,경기도 파주시 가람로 22,경기,파주시,37.7329023877326,126.753352282563
582,삼사이워크 ,"망했네, 망쳤네",제주곶자왈도립공원신평생태체험학교,주제특화 문화예술교육 지원 사업,융복합,아동,2025-07-14,2025-09-22,제주특별자치도 서귀포시 대정읍 중산간서로 2596,제주특별자치도,서귀포시,33.2670985355662,126.259620336481
583,텐저블아트 ,움직이는 소리  동화책,B1,꿈다락문화예술학교,"음악,미술,문학,연극/뮤지컬,미디어,융복합",아동,2025-07-12,2025-09-06,서울특별시 은평구 서오릉로15길 6,서울,은평구,37.6138832739246,126.909785805915
584,텐저블아트 ,기억을 짓다,B1,꿈다락문화예술학교,"음악,디자인,공예,미술,건축,융복합",,2025-08-24,2025-09-28,서울특별시 은평구 서오릉로15길 6,서울,은평구,37.6138832739246,126.909785805915
585,텐저블아트 ,마음이 머무는 프레임,B1,꿈다락문화예술학교,"음악,디자인,공예",청년,2025-07-09,2025-08-27,서울특별시 은평구 서오릉로15길 6,서울,은평구,37.6138832739246,126.909785805915
586,문화컨텐츠 나래,맘(Mom)속 해방일지,,꿈다락예술문화학교,"디자인,미술,문학",중장년,,,북구 동대8길 40 북구사회복지관,울산,북구,35.6312699147173,129.353896104184
587,문화컨텐츠 나래,나우(Now)이야기,,꿈다락예술문화학교,"미술,문학",노년,,,북구 동대8길 40 북구사회복지관 3층 주민프로그램실,울산,북구,35.6312699147173,129.353896104184
588,문화플랫폼 유담,우가차차 두루봉 예술살림,문의향교,생애주기 문화예술교육지원사업,"공예,미술,전통,융복합","아동,청소년",2025-04-19,2025-09-27,충청북도 청주시 상당구 문의면 문의시내1길 11-14,충북,청주시 상당구,36.5158192821984,127.496399464521
589,문화플랫폼 유담,경로당에 놀러간 예술,리호미,문화예술교육 배달지원사업,미술,노년,2025-06-17,2025-08-25,충청북도 청주시 상당구 문의면 문의시내2길 16-11,충북,청주시 상당구,36.516420019703,127.499542969026
590,문화플랫폼 유담,문의살림-삼짇에서 중양까지 제비살림,리호미,충북문화예술교육사업-생애주기2,"미술,문학,융복합","아동,청소년",2024-04-20,2024-10-05,충청북도 청주시 상당구 문의면 문의시내2길 16-11,충북,청주시 상당구,36.516420019703,127.499542969026
591,상상편집소 피플,6시 느긋한 동광길,예선빌딩 201호(느긋한서재),2024 생애주기별 문화예술교육 지원사업 <꿈다락 문화,"미술,문학","청년,중장년,노년",2024-06-25,2024-11-12,부산광역시 중구 동광길 42,부산,중구,35.1045964444461,129.034722667303
592,상상편집소 피플,느긋한 도시관찰자,예선빌딩 201(느긋한서재),2024 생애주기별 문화예술교육 지원사업 <꿈다락 문화,"영화,문학,미디어,기타","아동,청소년",2024-07-06,2024-11-23,부산광역시 중구 동광길 42,부산,중구,35.1045964444461,129.034722667303
593,상상편집소 피플,만약의 세계를 여는 아이들,보수동책방골목어린이도서관,2024 생애주기별 문화예술교육 지원사업 <꿈다락 문화,"미술,문학",아동,2024-06-25,2024-11-26,부산광역시 중구 대청로 57-16,부산,중구,35.1033639537798,129.026227101725
594,아츠컴퍼니 무아,길 위의 나 : 나만의 사용 설명서,성남서현문화의집,2025 경기문화예술교육 중견단체 확장지원 <펼쳐지는,"만화/애니메이션,문학,연극/뮤지컬","청소년,청년",2025-06-09,2025-10-27,경기도 성남시 분당구 중앙공원로39번길 29,경기,성남시 분당구,37.3825714389845,127.126549968818
595,아츠컴퍼니 무아,새 어른의 연극 프로젝트 <기억에 닿다>,수정중앙노인종합복지관,2025 생애주기별 문화예술교육 지원사업 「꿈다락 문화,연극/뮤지컬,노년,2025-07-21,2025-11-17,경기도 성남시 수정구 성남대로1480번길 38,경기,성남시 수정구,37.461502729552,127.130445916977
596,아츠컴퍼니 무아,꿈다락문화예술학교 어린이는 무엇을 믿는가 <꿈에 닿다>,성남 꿈꾸는 예술터,2025 생애주기별 문화예술교육 지원사업 「꿈다락 문화,연극/뮤지컬,아동,2025-06-18,2025-11-19,경기도 성남시 수정구 수정로 386,경기,성남시 수정구,37.4578053199943,127.152163310414
597,아츠컴퍼니 무아,꿈다락문화예술학교 생애전환 문화예술학교 <삶에 닿다>,성남 꿈꾸는 예술터,2025 생애주기별 문화예술교육 지원사업 「꿈다락 문화,연극/뮤지컬,중장년,2025-06-18,2025-11-19,경기도 성남시 수정구 수정로 386,경기,성남시 수정구,37.4578053199943,127.152163310414
598,한국무용단 곱다,"청소년X예술가 흐르는 몸짓, 반짝이는 우리",,꿈다락예술문화학교,전통,아동,,,"고양시 덕양구 삼원로 102, 고양시원흥종합사회복지관",경기,고양시 덕양구,37.636596644095,126.87285265634
599,공감놀이터 어링불,생애전환 문화예술학교 춤으로 그리는 찰나,,꿈다락예술문화학교,"사진,무용",중장년,,,포항시 남구 연일읍 자명로 272 자명예술촌,경북,포항시 남구,36.0226450078654,129.304442352839
600,공감놀이터 어링불,생애전환 문화예술학교 농부일기,,꿈다락예술문화학교,문학,중장년,,,포항시 북구 신광면 토성길 60 신광면 토성2리 마을회관(1기) / 포항시 남구 연일읍 자명로 272 자명예술촌(2기),경북,포항시 북구,36.1275961890196,129.265129840189
601,공감놀이터 어링불,꼬마작곡가 베토벤을 꿈꾸다!,,꿈다락예술문화학교,음악,"아동,청소년",,,포항시 남구 연일읍 자명로 272 자명예술촌,경북,포항시 남구,36.0226450078654,129.304442352839
602,문화연구소 노올자,놀면서 만드는 할매들 이야기,웅곡리마을회관,2025 생애주기별 문화예술교육 지원사업,연극/뮤지컬,노년,2025-06-25,2025-09-29,경상북도 구미시 무을면 웅곡1길 5,경북,구미시,36.2603329728837,128.231369298888
603,문화연구소 노올자,마음을 잇는 가족 이야기,구미 신협 형곡지점,2025 생애주기별 문화예술교육 지원사업,연극/뮤지컬,,2025-08-23,2025-11-08,경상북도 구미시 형곡로7길 5,경북,구미시,36.1152552265379,128.333197655182
604,문화연구소 노올자,움직이는 예술정거장 <내캉 니캉 깔깔이>,무이리 마을회관,꿈다락예술문화학교,연극/뮤지컬,노년,2023-07-12,2023-11-23,경상북도 구미시 무을면 무이1길 27,경북,구미시,36.2567708011306,128.221915069909
605,문화연구소 노올자,인생 한 잔,웅곡리 마을회관,2024 생애주기별 문화예술교육 지원사업,연극/뮤지컬,노년,2024-07-03,2025-10-02,경상북도 구미시 무을면 웅곡1길 5,경북,구미시,36.2603329728837,128.231369298888
606,문화연구소 노올자,연분홍 치마가 봄바람에~,구미 신협 형곡지점,2025 생애주기별 문화예술교육 지원사업,연극/뮤지컬,중장년,2025-06-26,2025-09-25,경상북도 구미시 형곡로7길 5,경북,구미시,36.1152552265379,128.333197655182
607,예술공동체 스케네,구름아래 예술놀이 제작소,,꿈다락예술문화학교,"문학,연극/뮤지컬",중장년,,,도봉구 마들로 797 도봉기적의도서관 열두대문극장,서울,도봉구,37.6808029698392,127.050132749664
608,예술공동체 스케네,구름 타고 예술로 선샤인,,꿈다락예술문화학교,"미술,문학,연극/뮤지컬","아동,청소년,중장년,장애인",,,중랑구 망우로73길 46-1 중랑숲어린이도서관 2층 노리터,서울,중랑구,37.6026681925347,127.103928412074
609,예술공동체 스케네,유연한 함께 살기 구름 속 가족愛 상상 둥지,,꿈다락예술문화학교,"미술,문학,연극/뮤지컬","아동,중장년",,,성동구 난계로 6 성동아이사랑복합문화센터,서울,성동구,37.5530275443261,127.025265587926
610,교육연구원 푸른잎새,영화 속 문학읽기,,,문학,청소년,2022-09-02,2022-09-30,서울특별시 강북구 수유로23길 14,서울,강북구,37.636956115321,127.022418052256
611,뮤지엄호두 주식회사,기억과 추억,뮤지엄호두,2025 꿈다락 문화예술학교,"디자인,공예,사진,미술",,2025-06-15,2025-08-24,충청남도 천안시 동남구 광덕면 광풍로 315,충남,천안시 동남구,36.6774990525777,127.057220360475
612,뮤지엄호두 주식회사,움직이는 기운,뮤지엄호두,2025 꿈다락 문화예술학교,"공예,미술,미디어,융복합","청년,중장년,노년",2025-08-30,2025-10-11,충청남도 천안시 동남구 광덕면 광풍로 315,충남,천안시 동남구,36.6774990525777,127.057220360475
613,뮤지엄호두 주식회사,OOO바라보기,뮤지엄호두,2025 꿈다락 문화예술학교,"디자인,공예,사진,미술",아동,2025-06-14,2025-08-09,충청남도 천안시 동남구 광덕면 광풍로 315,충남,천안시 동남구,36.6774990525777,127.057220360475
614,젠틀니나노 협동조합,나풀나풀~달래장_터! 2기,4층,2024 꿈다락문화예술학교,연극/뮤지컬,중장년,2024-08-28,2024-11-13,서울특별시 성북구 지봉로24길 26,서울,성북구,37.5838715489933,127.019324336876
615,젠틀니나노 협동조합,함께라면 나라라~ 써니! 2기,3층 다목적실,2024년 꿈다락문화예술학교,연극/뮤지컬,중장년,2024-09-11,2024-11-27,서울특별시 마포구 대흥로 122,서울,마포구,37.5503805149648,126.944291584943
616,경성대학교 산학협력단,"주말예술캠퍼스 생각하는 우리, 춤추는 지구별",,꿈다락예술문화학교,무용,아동,,,"남구 수영로 309 경성대학교 27호관 무용학과 hall 301, 302호",부산,남구,35.1384873078988,129.10010311307
617,경성대학교 산학협력단,"주말예술캠퍼스 생각하는 우리, 춤추는 지구별",,꿈다락예술문화학교,무용,아동,,,"남구 수영로 309 경성대학교 27호관 무용학과 hall 301, 302호",부산,남구,35.1384873078988,129.10010311307
618,경성대학교 산학협력단,주말예술캠퍼스 춤으로 보는 세계,,꿈다락예술문화학교,무용,청소년,,,"남구 수영로 309 경성대학교 27호관 무용학과 hall 301, 302호",부산,남구,35.1384873078988,129.10010311307
619,경성대학교 산학협력단,주말예술캠퍼스 춤으로 보는 세계,,꿈다락예술문화학교,무용,청소년,,,"남구 수영로 309 경성대학교 27호관 무용학과 hall 301, 302호",부산,남구,35.1384873078988,129.10010311307
620,경성대학교 산학협력단,Dance Wellness: 성찰과 회복의 춤,,꿈다락예술문화학교,무용,중장년,,,남구 수영로 309 경성대학교 27호관 무용학과 hall 301호,부산,남구,35.1384873078988,129.10010311307
621,경희대학교 산학협력단,예술로 레벨업 Move Your Body,,꿈다락예술문화학교,무용,청년,,,"서초구 방배동 987-2 지하1층, 코스모스인아트 스튜디오",서울,서초구,37.4806948894297,127.000211762355
622,고신대학교 산학협력단,은 하 수 다ː방(多方),4층 서구치매안심센터 기억채움쉼터,"2024 문화예술치유 프로그램 지원사업'마음치유,봄처럼",음악,노년,2024-04-30,2024-10-08,부산광역시 서구 구덕로 127,부산,서구,35.0963325838504,129.022058016701
623,고신대학교 산학협력단,낭 만 다ː방(多方),기장군 치매안심센터,"2024 문화예술치유 프로그램 지원사업'마음치유,봄처럼",음악,노년,2024-05-13,2024-09-23,부산광역시 기장군 정관읍 용수로 11,부산,기장군,35.3251972362826,129.179376623452
624,고신대학교 산학협력단,샛 별 다ː방(多方),남구치매안심센터,"2024 문화예술치유 프로그램 지원사업'마음치유,봄처럼",음악,노년,2024-05-01,2024-10-16,부산광역시 남구 수영로 155,부산,남구,35.1349553105516,129.083555031047
625,광주광역시 서구문화원,2023 학교예술강사 지원사업 기획사업 신비한 예술학교 프로그램을 만나다!! ⑤,광주광역시 서구문화원,,"국악,연극,영화,사진,무용,음악,미디어,미술,공예,문학,융합,디자인,만화·애니",청소년,2023-03-01,2023-11-30,광주광역시 서구 풍금로 182,광주,서구,35.1319650021537,126.859813867488
626,광주광역시 서구문화원,2023 학교예술강사 지원사업 예술강사 워크숍- NOW. ART BUS,김대중컨벤션센터,,"국악,연극,영화,사진,무용,공예,디자인,만화/애니메이션","청년,중장년",2023-02-15,2023-02-15,광주광역시 서구 상무누리로 30,광주,서구,35.1467770575479,126.840480480885
627,광주광역시 서구문화원,2023 학교예술강사 지원사업 기획사업 신비한 예술학교,광주광역시 서구문화원,,"국악,연극,영화,사진,무용,음악,미디어,미술,공예,문학,전통,융복합,디자인,만화/애니메이션,기타","청년,중장년",2023-03-20,2023-04-07,광주광역시 서구 풍금로 182,광주,서구,35.1319650021537,126.859813867488
628,광주광역시 서구문화원,「NOW. ART Festival」,광주 교육연수원 한빛관 로비,2024 학교예술강사 지원사업,"국악,영화,디자인,만화/애니메이션,공예,사진,미술,연극/뮤지컬,무용",청소년,2024-11-02,2024-11-27,광주광역시 북구 능안로30번길 5,광주,북구,35.1898891798594,126.919443139052
629,광주광역시 서구문화원,광주-청년 반상회 : ART 치료,광주광역시 서구문화원 강의실,2024년 지역문화전문인력 지원,"디자인,미술,전통,융복합,기타",청년,2024-07-04,2024-09-12,광주광역시 서구 풍금로 182,광주,서구,35.1319650021537,126.859813867488
630,광주광역시 서구문화원,2023 학교예술강사 지원사업 기획사업 신비한 예술학교 프로그램을 만나다!! ①,광주광역시 서구문화원,,"국악,연극,영화,사진,무용,공예,디자인,만화·애니",청소년,2023-06-01,2023-10-31,광주광역시 서구 풍금로 182,광주,서구,35.1319650021537,126.859813867488
631,광주광역시 서구문화원,2024 학교예술강사 지원사업 NOW. ART. zip,김대중컨벤션센터 208~210호,2024 학교예술강사 지원사업,"국악,영화,디자인,만화/애니메이션,공예,사진,연극/뮤지컬,무용","청년,중장년",2024-03-07,2024-03-07,광주광역시 서구 상무누리로 30,광주,서구,35.1467770575479,126.840480480885
632,광주광역시 서구문화원,NOW. ART Signal,"LC타워 1동 5층 501-1호, 2호",2024 학교예술강사 지원사업,"국악,영화,디자인,만화/애니메이션,공예,사진,연극/뮤지컬,무용","청년,중장년",2024-06-12,2024-06-19,광주광역시 광산구 첨단중앙로 96,광주,광산구,35.2138342256441,126.843465057781
633,광주광역시 서구문화원,2023 학교예술강사 지원사업 학교 예술교육 관계자 만남,김대중컨벤션센터,,"국악,연극,영화,사진,무용,공예,디자인,만화/애니메이션","청년,중장년",2023-02-24,2023-02-24,광주광역시 서구 상무누리로 30,광주,서구,35.1467770575479,126.840480480885
634,광주광역시 서구문화원,나의 洞시대 광주 오페라 전시,광주비엔날레 거시기홀,2024 학교예술강사 지원사업,"국악,영화,디자인,만화/애니메이션,공예,사진,미술,연극/뮤지컬,무용",청소년,2024-11-22,2024-11-27,광주광역시 북구 비엔날레로 111,광주,북구,35.1830982815456,126.889208656522
635,광주광역시 서구문화원,나의 洞시대 광주 오페라 전시 공모전,광주비엔날레 거시기홀,2024 학교예술강사 지원사업,"국악,영화,디자인,만화/애니메이션,공예,사진,연극/뮤지컬,무용",청소년,2024-11-22,2024-11-27,광주광역시 북구 비엔날레로 111,광주,북구,35.1830982815456,126.889208656522
636,광주광역시 서구문화원,2023 학교예술강사 지원사업 기획사업 별난 연구 실험실,광주광역시 서구문화원,,"국악,연극,영화,사진,무용,공예,디자인,만화/애니메이션","청년,중장년",2023-04-24,2023-05-17,광주광역시 서구 풍금로 182,광주,서구,35.1319650021537,126.859813867488
637,광주광역시 서구문화원,2023 학교예술강사 지원사업 기획사업 신비한 예술학교 프로그램 운영학교 희망신청,광주광역시 서구문화원,,"국악,연극,영화,사진,무용,음악,미디어,미술,공예,문학,전통,융복합,디자인,만화/애니메이션,기타",청소년,2023-05-10,2023-05-17,광주광역시 서구 풍금로 182,광주,서구,35.1319650021537,126.859813867488
638,광주광역시 서구문화원,2023 학교예술강사 지원사업 팔색팔인톡 with Brunch,"강산아트프렌즈 2층, 강산아트홀",,"국악,연극,영화,사진,무용,공예,디자인,만화/애니메이션","청년,중장년",2023-06-24,2023-06-24,광주광역시 서구 유덕로27번길 20,광주,서구,35.1635237435803,126.850276198163
639,광주광역시 서구문화원,2024 학교 예술교육 관계자 만남,김대중컨벤션센터 301호,2024 학교예술강사 지원사업,"국악,영화,디자인,만화/애니메이션,공예,사진,연극/뮤지컬,무용","청년,중장년",2024-03-14,2024-03-14,광주광역시 서구 상무누리로 30,광주,서구,35.1467770575479,126.840480480885
640,광주광역시 서구문화원,2023 학교예술강사 지원사업 기획사업 신비한 예술학교 프로그램을 만나다!! ③,광주광역시 서구문화원,,"국악,연극,영화,사진,무용,공예,융합,디자인,만화·애니",청소년,2023-06-01,2023-11-30,광주광역시 서구 풍금로 182,광주,서구,35.1319650021537,126.859813867488
641,세종대학교 산학협력단,이야기하는 몸2,"세종대학교 새날관 B1층, 실기실C",2025 꿈다락 문화예술학교(통합자율형),무용,중장년,2025-08-09,2025-11-08,서울특별시 광진구 군자로 121,서울,광진구,37.5537274682721,127.072886829447
642,세종대학교 산학협력단,초록 초록 초록섬2,"세종대학교 새날관 B1층, 실기실C",2025 꿈다락 문화예술학교(통합자율형),무용,청소년,2025-08-09,2025-11-08,서울특별시 광진구 군자로 121,서울,광진구,37.5537274682721,127.072886829447
643,수원대학교 산학협력단,두드림 at Home!,,꿈다락예술문화학교,국악,"아동,중장년",,,화성시 봉담읍 와우안길 17 수원대학교 음악관 국악관현악실,경기,화성시 효행구,37.2101098348016,126.979532176104
644,수원대학교 산학협력단,Oh!늘 예술-국악,수원대학교 음악관 관현악실,수원대학교꿈다락문화예술학교,"국악,음악,무용,전통,융복합,기타",중장년,2024-07-13,2024-11-30,경기도 화성시 봉담읍 와우안길 17,경기,화성시 효행구,37.2101098348016,126.979532176104
645,수원대학교 산학협력단,Oh!늘 예술-국악,,꿈다락예술문화학교,국악,"중장년,노년",,,화성시 봉담읍 와우안길 17 수원대학교 음악관 강의실 103호,경기,화성시 효행구,37.2101098348016,126.979532176104
